Datetime,NMEA msg,UTC time,latitude,northing,longitude,easting,fix mode status,space vehicles used,hdop,altitude msl,units,geoid (HAE-MSL),units,Age of DGNSS corrections,Ref station
2024-07-29 15:08:35,$GNGGA,200835,4153.22599,N,8739.49731,W,1,6,7.31,227.2,M,-33.8,M,,*74
2024-07-29 15:08:36,$GNGGA,200836,4153.22573,N,8739.49107,W,1,12,1.04,231.8,M,-33.8,M,,*78
2024-07-29 15:08:37,$GNGGA,200837,4153.22714,N,8739.5054,W,1,12,2.35,217.4,M,-33.8,M,,*7C
2024-07-29 15:08:38,$GNGGA,200838,4153.22074,N,8739.53747,W,1,12,1.5,196,M,-33.8,M,,*7A
2024-07-29 15:08:39,$GNGGA,200839,4153.21935,N,8739.53949,W,1,12,1.5,193.4,M,-33.8,M,,*75
2024-07-29 15:08:40,$GNGGA,200840,4153.21771,N,8739.53965,W,2,12,6.04,193.2,M,-33.8,M,3,0000*55
2024-07-29 15:08:41,$GNGGA,200841,4153.21793,N,8739.53889,W,5,12,2.82,192.2,M,-33.8,M,4,0000*50
2024-07-29 15:08:42,$GNGGA,200842,4153.218,N,8739.53886,W,5,12,2.82,190.5,M,-33.8,M,5,0000*5D
2024-07-29 15:08:43,$GNGGA,200843,4153.21801,N,8739.53897,W,5,12,2.82,189.4,M,-33.8,M,6,0000*57
2024-07-29 15:08:44,$GNGGA,200844,4153.21798,N,8739.53906,W,5,12,2.82,188.8,M,-33.8,M,7,0000*5A
2024-07-29 15:08:45,$GNGGA,200845,4153.218,N,8739.53911,W,5,12,2.82,188.4,M,-33.8,M,8,0000*50
2024-07-29 15:08:46,$GNGGA,200846,4153.21814,N,8739.53916,W,2,12,2.87,188.2,M,-33.8,M,9,0000*54
2024-07-29 15:08:47,$GNGGA,200847,4153.21847,N,8739.53932,W,2,12,2.82,188,M,-33.8,M,10,0000*6A
2024-07-29 15:08:48,$GNGGA,200848,4153.2189,N,8739.53959,W,5,12,2.82,187.6,M,-33.8,M,11,0000*6D
2024-07-29 15:08:49,$GNGGA,200849,4153.21938,N,8739.53989,W,5,12,2.82,187.6,M,-33.8,M,12,0000*61
2024-07-29 15:08:50,$GNGGA,200850,4153.21995,N,8739.54019,W,5,12,2.82,187.6,M,-33.8,M,13,0000*68
2024-07-29 15:08:51,$GNGGA,200851,4153.22052,N,8739.54019,W,5,12,2.82,187.8,M,-33.8,M,14,0000*61
2024-07-29 15:08:52,$GNGGA,200852,4153.2211,N,8739.54006,W,5,12,2.82,188.1,M,-33.8,M,15,0000*6C
2024-07-29 15:08:53,$GNGGA,200853,4153.22176,N,8739.54006,W,5,12,2.82,188.1,M,-33.8,M,16,0000*6E
2024-07-29 15:08:54,$GNGGA,200854,4153.22245,N,8739.54004,W,5,12,2.82,188.1,M,-33.8,M,17,0000*69
2024-07-29 15:08:55,$GNGGA,200855,4153.22311,N,8739.53993,W,5,12,2.82,188.3,M,-33.8,M,18,0000*65
2024-07-29 15:08:56,$GNGGA,200856,4153.22381,N,8739.54,W,5,12,2.82,188.2,M,-33.8,M,19,0000*6B
2024-07-29 15:08:57,$GNGGA,200857,4153.22451,N,8739.54006,W,5,12,2.82,188,M,-33.8,M,20,0000*6E
2024-07-29 15:08:58,$GNGGA,200858,4153.22521,N,8739.54,W,5,12,2.83,188.1,M,-33.8,M,21,0000*60
2024-07-29 15:08:59,$GNGGA,200859,4153.2259,N,8739.53999,W,5,12,2.83,188,M,-33.8,M,22,0000*67
2024-07-29 15:09:00,$GNGGA,200900,4153.22659,N,8739.54004,W,5,12,2.83,187.9,M,-33.8,M,23,0000*61
2024-07-29 15:09:01,$GNGGA,200901,4153.22726,N,8739.54,W,5,12,2.83,188,M,-33.8,M,24,0000*6C
2024-07-29 15:09:02,$GNGGA,200902,4153.22798,N,8739.54007,W,5,12,2.83,187.7,M,-33.8,M,25,0000*64
2024-07-29 15:09:03,$GNGGA,200903,4153.22871,N,8739.54018,W,5,12,2.83,187.6,M,-33.8,M,26,0000*61
2024-07-29 15:09:05,$GNGGA,200905,4153.23018,N,8739.54025,W,5,12,2.83,187.4,M,-33.8,M,28,0000*63
2024-07-29 15:09:07,$GNGGA,200907,4153.23163,N,8739.54036,W,5,12,3.25,187.3,M,-33.8,M,30,0000*6D
2024-07-29 15:09:09,$GNGGA,200909,4153.23322,N,8739.54059,W,5,12,3.26,187,M,-33.8,M,32,0000*6F
2024-07-29 15:09:10,$GNGGA,200910,4153.23402,N,8739.54065,W,5,12,3.26,186.8,M,-33.8,M,8,0000*5D
2024-07-29 15:09:11,$GNGGA,200911,4153.2348,N,8739.54065,W,5,12,3.26,186.7,M,-33.8,M,9,0000*58
2024-07-29 15:09:12,$GNGGA,200912,4153.23555,N,8739.54062,W,5,12,3.26,186.6,M,-33.8,M,10,0000*6C
2024-07-29 15:09:13,$GNGGA,200913,4153.23626,N,8739.54059,W,5,12,3.26,186.5,M,-33.8,M,11,0000*60
2024-07-29 15:09:14,$GNGGA,200914,4153.23694,N,8739.54064,W,5,12,3.26,186.5,M,-33.8,M,12,0000*63
2024-07-29 15:09:15,$GNGGA,200915,4153.23763,N,8739.5407,W,5,12,3.26,186.4,M,-33.8,M,13,0000*6E
2024-07-29 15:09:16,$GNGGA,200916,4153.23831,N,8739.54064,W,5,12,3.26,186.4,M,-33.8,M,14,0000*67
2024-07-29 15:09:17,$GNGGA,200917,4153.23897,N,8739.54053,W,5,12,3.26,186.4,M,-33.8,M,15,0000*6F
2024-07-29 15:09:18,$GNGGA,200918,4153.23963,N,8739.54045,W,5,12,3.26,186.3,M,-33.8,M,16,0000*69
2024-07-29 15:09:19,$GNGGA,200919,4153.2403,N,8739.54047,W,5,12,3.26,186.3,M,-33.8,M,17,0000*63
2024-07-29 15:09:20,$GNGGA,200920,4153.24095,N,8739.54047,W,5,12,3.26,186.3,M,-33.8,M,3,0000*53
2024-07-29 15:09:21,$GNGGA,200921,4153.24163,N,8739.54048,W,5,12,1.87,186.1,M,-33.8,M,4,0000*59
2024-07-29 15:09:22,$GNGGA,200922,4153.24231,N,8739.54045,W,5,12,1.87,186,M,-33.8,M,5,0000*53
2024-07-29 15:09:23,$GNGGA,200923,4153.24301,N,8739.54042,W,5,12,1.87,185.9,M,-33.8,M,6,0000*5E
2024-07-29 15:09:24,$GNGGA,200924,4153.24371,N,8739.54044,W,5,12,1.87,185.7,M,-33.8,M,7,0000*57
2024-07-29 15:09:25,$GNGGA,200925,4153.24437,N,8739.54047,W,5,12,1.87,185.7,M,-33.8,M,8,0000*5F
2024-07-29 15:09:26,$GNGGA,200926,4153.24504,N,8739.54051,W,5,12,1.87,185.6,M,-33.8,M,9,0000*5A
2024-07-29 15:09:27,$GNGGA,200927,4153.24572,N,8739.54049,W,5,12,1.87,185.5,M,-33.8,M,10,0000*68
2024-07-29 15:09:28,$GNGGA,200928,4153.24644,N,8739.54052,W,5,12,1.87,185.4,M,-33.8,M,11,0000*6B
2024-07-29 15:09:29,$GNGGA,200929,4153.24718,N,8739.54054,W,5,12,1.87,185.4,M,-33.8,M,12,0000*67
2024-07-29 15:09:31,$GNGGA,200931,4153.2486,N,8739.54057,W,5,12,1.87,185.1,M,-33.8,M,4,0000*5F
2024-07-29 15:09:32,$GNGGA,200932,4153.24928,N,8739.54063,W,5,12,1.87,185,M,-33.8,M,5,0000*56
2024-07-29 15:09:33,$GNGGA,200933,4153.24996,N,8739.5407,W,5,12,1.87,184.9,M,-33.8,M,6,0000*5B
2024-07-29 15:09:34,$GNGGA,200934,4153.25064,N,8739.54073,W,5,12,1.87,184.7,M,-33.8,M,7,0000*55
2024-07-29 15:09:35,$GNGGA,200935,4153.25132,N,8739.54072,W,5,12,1.87,184.6,M,-33.8,M,8,0000*59
2024-07-29 15:09:36,$GNGGA,200936,4153.252,N,8739.54066,W,5,12,1.87,184.4,M,-33.8,M,9,0000*5E
2024-07-29 15:09:37,$GNGGA,200937,4153.25269,N,8739.54059,W,5,12,1.87,184.3,M,-33.8,M,10,0000*63
2024-07-29 15:09:38,$GNGGA,200938,4153.25337,N,8739.54057,W,5,12,1.87,184.2,M,-33.8,M,11,0000*68
2024-07-29 15:09:41,$GNGGA,200941,4153.25541,N,8739.54058,W,5,12,1.4,183.8,M,-33.8,M,4,0000*5C
2024-07-29 15:09:43,$GNGGA,200943,4153.25657,N,8739.54053,W,5,12,1.4,183.6,M,-33.8,M,6,0000*5D
2024-07-29 15:09:44,$GNGGA,200944,4153.25702,N,8739.54052,W,5,12,1.4,183.6,M,-33.8,M,7,0000*5B
2024-07-29 15:09:45,$GNGGA,200945,4153.25727,N,8739.54049,W,5,12,1.4,183.5,M,-33.8,M,8,0000*5B
2024-07-29 15:09:46,$GNGGA,200946,4153.25731,N,8739.54047,W,5,12,1.4,183.4,M,-33.8,M,9,0000*51
2024-07-29 15:09:47,$GNGGA,200947,4153.25733,N,8739.54046,W,5,12,1.4,183.2,M,-33.8,M,10,0000*6D
2024-07-29 15:09:48,$GNGGA,200948,4153.25739,N,8739.54047,W,5,12,1.4,182.7,M,-33.8,M,11,0000*6C
2024-07-29 15:09:49,$GNGGA,200949,4153.25742,N,8739.54045,W,5,12,1.4,182.2,M,-33.8,M,12,0000*65
2024-07-29 15:09:50,$GNGGA,200950,4153.25742,N,8739.54046,W,5,12,1.4,181.9,M,-33.8,M,3,0000*56
2024-07-29 15:09:51,$GNGGA,200951,4153.25743,N,8739.54049,W,5,12,0.88,181.7,M,-33.8,M,4,0000*55
2024-07-29 15:09:52,$GNGGA,200952,4153.25743,N,8739.54051,W,5,12,0.88,181.6,M,-33.8,M,5,0000*5F
2024-07-29 15:09:53,$GNGGA,200953,4153.25743,N,8739.54052,W,5,12,0.88,181.6,M,-33.8,M,6,0000*5E
2024-07-29 15:09:54,$GNGGA,200954,4153.25743,N,8739.54054,W,5,12,0.88,181.5,M,-33.8,M,7,0000*5D
2024-07-29 15:09:55,$GNGGA,200955,4153.25743,N,8739.54055,W,5,12,0.88,181.5,M,-33.8,M,8,0000*52
2024-07-29 15:09:56,$GNGGA,200956,4153.25743,N,8739.54054,W,5,12,0.88,181.6,M,-33.8,M,9,0000*52
2024-07-29 15:09:57,$GNGGA,200957,4153.25741,N,8739.54058,W,5,12,0.88,182.1,M,-33.8,M,10,0000*61
2024-07-29 15:09:58,$GNGGA,200958,4153.25735,N,8739.54087,W,5,12,0.88,182.3,M,-33.8,M,11,0000*6C
2024-07-29 15:09:59,$GNGGA,200959,4153.25728,N,8739.54141,W,5,12,0.88,182.2,M,-33.8,M,12,0000*68
2024-07-29 15:10:00,$GNGGA,201000,4153.25719,N,8739.54203,W,5,12,0.88,182.3,M,-33.8,M,8,0000*51
2024-07-29 15:10:01,$GNGGA,201001,4153.25707,N,8739.54271,W,5,12,0.88,182.3,M,-33.8,M,4,0000*56
2024-07-29 15:10:02,$GNGGA,201002,4153.25715,N,8739.54343,W,4,12,0.83,181.3,M,-33.8,M,5,0000*5E
2024-07-29 15:10:03,$GNGGA,201003,4153.25708,N,8739.54464,W,4,12,0.83,181.3,M,-33.8,M,6,0000*52
2024-07-29 15:10:04,$GNGGA,201004,4153.25693,N,8739.54573,W,4,12,1.01,181.4,M,-33.8,M,7,0000*5C
2024-07-29 15:10:05,$GNGGA,201005,4153.25686,N,8739.54667,W,4,12,1.01,181.5,M,-33.8,M,8,0000*51
2024-07-29 15:10:06,$GNGGA,201006,4153.25684,N,8739.54759,W,4,12,1.01,181.5,M,-33.8,M,9,0000*5D
2024-07-29 15:10:07,$GNGGA,201007,4153.25672,N,8739.54851,W,4,12,1.01,181.5,M,-33.8,M,10,0000*6A
2024-07-29 15:10:08,$GNGGA,201008,4153.25657,N,8739.54946,W,5,12,1.01,181.5,M,-33.8,M,11,0000*65
2024-07-29 15:10:09,$GNGGA,201009,4153.25648,N,8739.55042,W,5,12,1.01,181.5,M,-33.8,M,12,0000*65
2024-07-29 15:10:10,$GNGGA,201010,4153.25643,N,8739.55142,W,5,12,1.01,181.5,M,-33.8,M,8,0000*5C
2024-07-29 15:10:11,$GNGGA,201011,4153.25645,N,8739.55235,W,5,12,0.98,181.5,M,-33.8,M,9,0000*58
2024-07-29 15:10:12,$GNGGA,201012,4153.25648,N,8739.55332,W,5,12,1.2,181.5,M,-33.8,M,5,0000*5E
2024-07-29 15:10:13,$GNGGA,201013,4153.25647,N,8739.55431,W,5,12,1.2,181.6,M,-33.8,M,6,0000*54
2024-07-29 15:10:14,$GNGGA,201014,4153.25648,N,8739.55527,W,5,12,1.2,181.5,M,-33.8,M,7,0000*58
2024-07-29 15:10:15,$GNGGA,201015,4153.25652,N,8739.55619,W,5,12,1.2,181.5,M,-33.8,M,8,0000*53
2024-07-29 15:10:16,$GNGGA,201016,4153.25636,N,8739.55722,W,5,12,1.2,181.4,M,-33.8,M,9,0000*5B
2024-07-29 15:10:17,$GNGGA,201017,4153.25641,N,8739.55815,W,5,12,1.2,181.6,M,-33.8,M,10,0000*6B
2024-07-29 15:10:18,$GNGGA,201018,4153.25642,N,8739.55906,W,5,12,1.2,181.7,M,-33.8,M,11,0000*64
2024-07-29 15:10:19,$GNGGA,201019,4153.25648,N,8739.55996,W,5,12,1.2,181.5,M,-33.8,M,12,0000*67
2024-07-29 15:10:20,$GNGGA,201020,4153.25639,N,8739.56089,W,5,12,1.12,181.6,M,-33.8,M,8,0000*56
2024-07-29 15:10:21,$GNGGA,201021,4153.25641,N,8739.5618,W,5,12,1.12,181.5,M,-33.8,M,4,0000*5F
2024-07-29 15:10:22,$GNGGA,201022,4153.25633,N,8739.56273,W,5,12,1.12,181.6,M,-33.8,M,5,0000*54
2024-07-29 15:10:23,$GNGGA,201023,4153.25634,N,8739.56368,W,5,12,1.12,181.6,M,-33.8,M,6,0000*5A
2024-07-29 15:10:24,$GNGGA,201024,4153.2563,N,8739.56462,W,5,12,1.12,181.7,M,-33.8,M,7,0000*54
2024-07-29 15:10:25,$GNGGA,201025,4153.25631,N,8739.56556,W,5,12,1.12,181.6,M,-33.8,M,8,0000*5C
2024-07-29 15:10:26,$GNGGA,201026,4153.25628,N,8739.56652,W,5,12,1.12,181.6,M,-33.8,M,9,0000*51
2024-07-29 15:10:27,$GNGGA,201027,4153.25633,N,8739.56744,W,5,12,1.12,181.6,M,-33.8,M,10,0000*64
2024-07-29 15:10:28,$GNGGA,201028,4153.25629,N,8739.56839,W,5,12,1.12,181.5,M,-33.8,M,11,0000*67
2024-07-29 15:10:29,$GNGGA,201029,4153.25628,N,8739.56932,W,5,12,1.12,181.6,M,-33.8,M,12,0000*6D
2024-07-29 15:10:30,$GNGGA,201030,4153.25618,N,8739.57031,W,5,12,1.12,181.6,M,-33.8,M,8,0000*56
2024-07-29 15:10:31,$GNGGA,201031,4153.25608,N,8739.57126,W,5,12,1.12,181.6,M,-33.8,M,4,0000*5D
2024-07-29 15:10:32,$GNGGA,201032,4153.25619,N,8739.57218,W,5,12,1.12,181.4,M,-33.8,M,5,0000*53
2024-07-29 15:10:33,$GNGGA,201033,4153.25602,N,8739.5732,W,5,12,1.12,181.6,M,-33.8,M,6,0000*53
2024-07-29 15:10:34,$GNGGA,201034,4153.256,N,8739.57418,W,5,12,1.12,181.6,M,-33.8,M,7,0000*5B
2024-07-29 15:10:36,$GNGGA,201036,4153.25596,N,8739.57619,W,5,12,1.21,181.4,M,-33.8,M,9,0000*5A
2024-07-29 15:10:37,$GNGGA,201037,4153.25599,N,8739.57718,W,5,12,1.21,181.6,M,-33.8,M,10,0000*6E
2024-07-29 15:10:38,$GNGGA,201038,4153.25597,N,8739.57823,W,5,12,1.21,181.6,M,-33.8,M,11,0000*69
2024-07-29 15:10:39,$GNGGA,201039,4153.25594,N,8739.57925,W,5,12,1.21,181.5,M,-33.8,M,12,0000*6C
2024-07-29 15:10:40,$GNGGA,201040,4153.2559,N,8739.58025,W,5,12,1.12,181.5,M,-33.8,M,8,0000*5B
2024-07-29 15:10:41,$GNGGA,201041,4153.25588,N,8739.58126,W,5,12,1.21,181.6,M,-33.8,M,4,0000*5E
2024-07-29 15:10:42,$GNGGA,201042,4153.25591,N,8739.58226,W,5,12,1.21,181.5,M,-33.8,M,5,0000*54
2024-07-29 15:10:43,$GNGGA,201043,4153.25593,N,8739.5833,W,5,12,1.12,181.5,M,-33.8,M,6,0000*52
2024-07-29 15:10:45,$GNGGA,201045,4153.25587,N,8739.58539,W,5,12,1.12,181.5,M,-33.8,M,8,0000*50
2024-07-29 15:10:46,$GNGGA,201046,4153.25587,N,8739.58644,W,5,12,1.21,181.5,M,-33.8,M,9,0000*5B
2024-07-29 15:10:47,$GNGGA,201047,4153.25583,N,8739.5875,W,5,12,1.21,181.5,M,-33.8,M,10,0000*62
2024-07-29 15:10:48,$GNGGA,201048,4153.25584,N,8739.58854,W,5,12,1.21,181.5,M,-33.8,M,11,0000*60
2024-07-29 15:10:49,$GNGGA,201049,4153.25583,N,8739.58957,W,5,12,1.24,181.5,M,-33.8,M,12,0000*62
2024-07-29 15:10:50,$GNGGA,201050,4153.25582,N,8739.59063,W,5,12,1.24,181.5,M,-33.8,M,13,0000*65
2024-07-29 15:10:51,$GNGGA,201051,4153.2558,N,8739.59166,W,5,12,1.24,181.4,M,-33.8,M,14,0000*64
2024-07-29 15:10:52,$GNGGA,201052,4153.25582,N,8739.59271,W,5,12,1.15,181.4,M,-33.8,M,15,0000*63
2024-07-29 15:10:54,$GNGGA,201054,4153.25593,N,8739.59485,W,2,12,1.96,181.3,M,-33.8,M,17,0000*61
2024-07-29 15:10:56,$GNGGA,201056,4153.25621,N,8739.59688,W,2,12,1.62,181.2,M,-33.8,M,19,0000*62
2024-07-29 15:10:57,$GNGGA,201057,4153.25602,N,8739.59761,W,5,12,1.62,181.6,M,-33.8,M,20,0000*6D
2024-07-29 15:10:58,$GNGGA,201058,4153.25594,N,8739.59855,W,5,12,1.62,181.6,M,-33.8,M,21,0000*67
2024-07-29 15:10:59,$GNGGA,201059,4153.25591,N,8739.59955,W,5,12,1.59,181.7,M,-33.8,M,22,0000*68
2024-07-29 15:11:00,$GNGGA,201100,4153.25587,N,8739.60056,W,5,12,1.33,181.8,M,-33.8,M,13,0000*63
2024-07-29 15:11:01,$GNGGA,201101,4153.25582,N,8739.60157,W,5,12,1.59,181.9,M,-33.8,M,4,0000*5C
2024-07-29 15:11:02,$GNGGA,201102,4153.25577,N,8739.60256,W,5,12,1.59,182,M,-33.8,M,5,0000*5C
2024-07-29 15:11:03,$GNGGA,201103,4153.25568,N,8739.60357,W,5,12,1.59,182,M,-33.8,M,6,0000*50
2024-07-29 15:11:04,$GNGGA,201104,4153.25562,N,8739.60459,W,5,12,1.24,182,M,-33.8,M,7,0000*5F
2024-07-29 15:11:05,$GNGGA,201105,4153.25557,N,8739.6056,W,5,12,1.24,182.1,M,-33.8,M,8,0000*5D
2024-07-29 15:11:06,$GNGGA,201106,4153.25547,N,8739.60662,W,5,12,1.24,181.9,M,-33.8,M,9,0000*54
2024-07-29 15:11:07,$GNGGA,201107,4153.25545,N,8739.60762,W,5,12,1.28,181.9,M,-33.8,M,10,0000*62
2024-07-29 15:11:08,$GNGGA,201108,4153.25542,N,8739.60859,W,5,12,1.28,181.9,M,-33.8,M,11,0000*6C
2024-07-29 15:11:09,$GNGGA,201109,4153.25538,N,8739.60957,W,5,12,1.28,181.9,M,-33.8,M,12,0000*6C
2024-07-29 15:11:10,$GNGGA,201110,4153.25532,N,8739.61058,W,5,12,1.28,181.9,M,-33.8,M,13,0000*68
2024-07-29 15:11:12,$GNGGA,201112,4153.25524,N,8739.61259,W,5,12,1.24,182,M,-33.8,M,5,0000*5F
2024-07-29 15:11:13,$GNGGA,201113,4153.25525,N,8739.6136,W,5,12,1.24,182,M,-33.8,M,6,0000*57
2024-07-29 15:11:14,$GNGGA,201114,4153.25524,N,8739.61459,W,5,12,1.24,181.9,M,-33.8,M,7,0000*57
2024-07-29 15:11:15,$GNGGA,201115,4153.25523,N,8739.61557,W,5,12,1.24,181.9,M,-33.8,M,8,0000*51
2024-07-29 15:11:16,$GNGGA,201116,4153.25523,N,8739.61654,W,5,12,1.24,181.9,M,-33.8,M,9,0000*53
2024-07-29 15:11:17,$GNGGA,201117,4153.25523,N,8739.61755,W,5,12,1.24,181.9,M,-33.8,M,10,0000*6A
2024-07-29 15:11:18,$GNGGA,201118,4153.25519,N,8739.61853,W,5,12,1.53,181.9,M,-33.8,M,11,0000*64
2024-07-29 15:11:19,$GNGGA,201119,4153.25521,N,8739.61949,W,5,12,1.53,181.9,M,-33.8,M,12,0000*67
2024-07-29 15:11:20,$GNGGA,201120,4153.25523,N,8739.62048,W,5,12,1.53,181.9,M,-33.8,M,13,0000*65
2024-07-29 15:11:21,$GNGGA,201121,4153.25525,N,8739.62148,W,5,12,1.53,181.8,M,-33.8,M,4,0000*54
2024-07-29 15:11:22,$GNGGA,201122,4153.25523,N,8739.62244,W,5,12,1.51,181.9,M,-33.8,M,5,0000*5C
2024-07-29 15:11:23,$GNGGA,201123,4153.25516,N,8739.62335,W,2,12,1.51,181.9,M,-33.8,M,6,0000*58
2024-07-29 15:11:24,$GNGGA,201124,4153.25511,N,8739.62436,W,5,12,1.51,182,M,-33.8,M,7,0000*50
2024-07-29 15:11:25,$GNGGA,201125,4153.25504,N,8739.62537,W,2,12,1.51,182.3,M,-33.8,M,8,0000*5E
2024-07-29 15:11:26,$GNGGA,201126,4153.25501,N,8739.62634,W,5,12,1.51,182.4,M,-33.8,M,9,0000*59
2024-07-29 15:11:27,$GNGGA,201127,4153.25502,N,8739.62723,W,5,12,1.51,182.4,M,-33.8,M,10,0000*64
2024-07-29 15:11:28,$GNGGA,201128,4153.25504,N,8739.62814,W,5,12,1.21,182.3,M,-33.8,M,11,0000*67
2024-07-29 15:11:30,$GNGGA,201130,4153.255,N,8739.62999,W,5,12,1.52,182.2,M,-33.8,M,3,0000*58
2024-07-29 15:11:31,$GNGGA,201131,4153.25501,N,8739.63092,W,5,12,1.52,182.1,M,-33.8,M,4,0000*5F
2024-07-29 15:11:32,$GNGGA,201132,4153.25504,N,8739.63186,W,5,12,1.52,182.2,M,-33.8,M,5,0000*5F
2024-07-29 15:11:33,$GNGGA,201133,4153.25506,N,8739.63283,W,5,12,1.3,182.2,M,-33.8,M,6,0000*5D
2024-07-29 15:11:34,$GNGGA,201134,4153.25506,N,8739.6338,W,5,12,1.52,182.1,M,-33.8,M,7,0000*5E
2024-07-29 15:11:35,$GNGGA,201135,4153.25503,N,8739.63475,W,5,12,1.52,182.1,M,-33.8,M,8,0000*58
2024-07-29 15:11:36,$GNGGA,201136,4153.255,N,8739.63569,W,5,12,1.13,182.1,M,-33.8,M,9,0000*50
2024-07-29 15:11:38,$GNGGA,201138,4153.25503,N,8739.63761,W,5,12,1.13,182.1,M,-33.8,M,11,0000*6E
2024-07-29 15:11:39,$GNGGA,201139,4153.25503,N,8739.63859,W,2,12,1.13,182.2,M,-33.8,M,12,0000*6C
2024-07-29 15:11:40,$GNGGA,201140,4153.25505,N,8739.63962,W,2,12,1.13,182.7,M,-33.8,M,8,0000*53
2024-07-29 15:11:41,$GNGGA,201141,4153.25493,N,8739.64061,W,2,12,1.13,182.8,M,-33.8,M,9,0000*5F
2024-07-29 15:11:42,$GNGGA,201142,4153.25462,N,8739.64151,W,5,12,1.13,182.7,M,-33.8,M,5,0000*54
2024-07-29 15:11:43,$GNGGA,201143,4153.25402,N,8739.64215,W,5,12,1.13,182.8,M,-33.8,M,6,0000*5C
2024-07-29 15:11:44,$GNGGA,201144,4153.25334,N,8739.64253,W,5,12,1.13,182.8,M,-33.8,M,7,0000*5A
2024-07-29 15:11:45,$GNGGA,201145,4153.25277,N,8739.643,W,5,12,1.13,183.3,M,-33.8,M,8,0000*5F
2024-07-29 15:11:47,$GNGGA,201147,4153.25107,N,8739.64327,W,5,12,0.87,182.8,M,-33.8,M,10,0000*63
2024-07-29 15:11:48,$GNGGA,201148,4153.2503,N,8739.64352,W,5,12,0.87,182.8,M,-33.8,M,11,0000*6A
2024-07-29 15:11:49,$GNGGA,201149,4153.24955,N,8739.64355,W,5,12,0.87,182.9,M,-33.8,M,12,0000*65
2024-07-29 15:11:50,$GNGGA,201150,4153.24879,N,8739.64349,W,5,12,1.17,183,M,-33.8,M,8,0000*54
2024-07-29 15:11:51,$GNGGA,201151,4153.24804,N,8739.64346,W,5,12,1.17,182.9,M,-33.8,M,9,0000*59
2024-07-29 15:11:52,$GNGGA,201152,4153.24723,N,8739.64348,W,5,12,1.17,182.8,M,-33.8,M,10,0000*67
2024-07-29 15:11:53,$GNGGA,201153,4153.24643,N,8739.64348,W,5,12,1.42,182.7,M,-33.8,M,11,0000*6F
2024-07-29 15:11:54,$GNGGA,201154,4153.24562,N,8739.64353,W,5,12,1.42,182.7,M,-33.8,M,12,0000*61
2024-07-29 15:11:55,$GNGGA,201155,4153.24483,N,8739.64359,W,5,12,1.42,182.6,M,-33.8,M,13,0000*64
2024-07-29 15:11:56,$GNGGA,201156,4153.24409,N,8739.6436,W,5,12,1.42,182.6,M,-33.8,M,14,0000*68
2024-07-29 15:11:57,$GNGGA,201157,4153.24337,N,8739.64358,W,5,12,1.42,182.6,M,-33.8,M,15,0000*69
2024-07-29 15:11:58,$GNGGA,201158,4153.24262,N,8739.64354,W,5,12,1.42,182.6,M,-33.8,M,16,0000*68
2024-07-29 15:11:59,$GNGGA,201159,4153.24185,N,8739.64351,W,5,12,1.42,182.5,M,-33.8,M,17,0000*64
2024-07-29 15:12:01,$GNGGA,201201,4153.24027,N,8739.64347,W,5,12,1.42,182.6,M,-33.8,M,9,0000*58
2024-07-29 15:12:02,$GNGGA,201202,4153.23948,N,8739.64347,W,5,12,1.42,182.7,M,-33.8,M,10,0000*65
2024-07-29 15:12:03,$GNGGA,201203,4153.2387,N,8739.64345,W,5,12,1.42,182.6,M,-33.8,M,11,0000*6C
2024-07-29 15:12:04,$GNGGA,201204,4153.23793,N,8739.64344,W,5,12,1.16,182.6,M,-33.8,M,12,0000*6A
2024-07-29 15:12:05,$GNGGA,201205,4153.23721,N,8739.64338,W,5,12,1.16,182.7,M,-33.8,M,13,0000*69
2024-07-29 15:12:06,$GNGGA,201206,4153.23648,N,8739.64333,W,5,12,1.16,182.7,M,-33.8,M,14,0000*68
2024-07-29 15:12:07,$GNGGA,201207,4153.23573,N,8739.64332,W,5,12,1.16,182.7,M,-33.8,M,15,0000*62
2024-07-29 15:12:08,$GNGGA,201208,4153.23497,N,8739.64328,W,5,12,1.16,182.7,M,-33.8,M,16,0000*6E
2024-07-29 15:12:09,$GNGGA,201209,4153.2342,N,8739.6433,W,5,12,1.16,182.7,M,-33.8,M,17,0000*6B
2024-07-29 15:12:10,$GNGGA,201210,4153.23364,N,8739.64301,W,5,12,1.52,182.3,M,-33.8,M,8,0000*5C
2024-07-29 15:12:11,$GNGGA,201211,4153.23306,N,8739.64287,W,2,12,1.2,182.1,M,-33.8,M,4,0000*5A
2024-07-29 15:12:12,$GNGGA,201212,4153.23231,N,8739.64297,W,5,12,1.23,182,M,-33.8,M,5,0000*59
2024-07-29 15:12:14,$GNGGA,201214,4153.23078,N,8739.64294,W,5,12,1.05,182.1,M,-33.8,M,7,0000*54
2024-07-29 15:12:15,$GNGGA,201215,4153.23002,N,8739.64296,W,5,12,1.05,182.1,M,-33.8,M,8,0000*55
2024-07-29 15:12:16,$GNGGA,201216,4153.22927,N,8739.643,W,5,12,1.05,182.2,M,-33.8,M,9,0000*55
2024-07-29 15:12:17,$GNGGA,201217,4153.22851,N,8739.64305,W,5,12,1.23,182.1,M,-33.8,M,10,0000*6E
2024-07-29 15:12:18,$GNGGA,201218,4153.22782,N,8739.6431,W,5,12,1.09,181.9,M,-33.8,M,11,0000*66
2024-07-29 15:12:19,$GNGGA,201219,4153.22714,N,8739.64313,W,5,12,1.09,182,M,-33.8,M,12,0000*62
2024-07-29 15:12:20,$GNGGA,201220,4153.22645,N,8739.64306,W,5,12,1.09,182,M,-33.8,M,3,0000*59
2024-07-29 15:12:21,$GNGGA,201221,4153.22575,N,8739.64295,W,5,12,1.09,182,M,-33.8,M,4,0000*54
2024-07-29 15:12:22,$GNGGA,201222,4153.22499,N,8739.64291,W,5,12,1.23,182.2,M,-33.8,M,5,0000*5B
2024-07-29 15:12:23,$GNGGA,201223,4153.2241,N,8739.64329,W,4,12,1.23,181.6,M,-33.8,M,6,0000*5C
2024-07-29 15:12:24,$GNGGA,201224,4153.22341,N,8739.64327,W,4,12,1.23,181.5,M,-33.8,M,7,0000*54
2024-07-29 15:12:25,$GNGGA,201225,4153.22267,N,8739.64322,W,4,12,1.23,181.6,M,-33.8,M,8,0000*59
2024-07-29 15:12:26,$GNGGA,201226,4153.22193,N,8739.6433,W,4,12,1.23,181.7,M,-33.8,M,9,0000*51
2024-07-29 15:12:27,$GNGGA,201227,4153.2212,N,8739.64333,W,4,12,1.23,181.6,M,-33.8,M,10,0000*62
2024-07-29 15:12:28,$GNGGA,201228,4153.22046,N,8739.64342,W,4,12,1.05,181.7,M,-33.8,M,11,0000*6E
2024-07-29 15:12:29,$GNGGA,201229,4153.21975,N,8739.64343,W,5,12,1.05,181.6,M,-33.8,M,12,0000*67
2024-07-29 15:12:30,$GNGGA,201230,4153.21906,N,8739.64342,W,5,12,1.05,181.6,M,-33.8,M,13,0000*6B
2024-07-29 15:12:31,$GNGGA,201231,4153.21836,N,8739.64343,W,5,12,1.05,181.6,M,-33.8,M,14,0000*6E
2024-07-29 15:12:32,$GNGGA,201232,4153.21764,N,8739.64341,W,5,12,1.05,181.6,M,-33.8,M,15,0000*66
2024-07-29 15:12:34,$GNGGA,201234,4153.21624,N,8739.6433,W,5,12,1.23,181.5,M,-33.8,M,17,0000*66
2024-07-29 15:12:35,$GNGGA,201235,4153.21556,N,8739.64328,W,5,12,1.23,181.4,M,-33.8,M,18,0000*66
2024-07-29 15:12:36,$GNGGA,201236,4153.21483,N,8739.64332,W,5,12,1.07,181.4,M,-33.8,M,19,0000*60
2024-07-29 15:12:37,$GNGGA,201237,4153.21411,N,8739.64331,W,5,12,1.07,181.4,M,-33.8,M,20,0000*63
2024-07-29 15:12:39,$GNGGA,201239,4153.21273,N,8739.64326,W,5,12,1.07,181.4,M,-33.8,M,22,0000*6B
2024-07-29 15:12:40,$GNGGA,201240,4153.21202,N,8739.64326,W,5,12,1.44,181.4,M,-33.8,M,3,0000*57
2024-07-29 15:12:41,$GNGGA,201241,4153.21133,N,8739.64324,W,5,12,1.44,181.4,M,-33.8,M,4,0000*52
2024-07-29 15:12:42,$GNGGA,201242,4153.21067,N,8739.64318,W,5,12,1.27,181.3,M,-33.8,M,5,0000*5D
2024-07-29 15:12:43,$GNGGA,201243,4153.20998,N,8739.64312,W,5,12,1.23,181.3,M,-33.8,M,6,0000*59
2024-07-29 15:12:44,$GNGGA,201244,4153.20924,N,8739.64309,W,4,12,1.05,181.7,M,-33.8,M,7,0000*53
2024-07-29 15:12:45,$GNGGA,201245,4153.20856,N,8739.64304,W,4,12,1.07,181.6,M,-33.8,M,8,0000*57
2024-07-29 15:12:46,$GNGGA,201246,4153.20789,N,8739.64298,W,4,12,1.07,181.6,M,-33.8,M,9,0000*5C
2024-07-29 15:12:47,$GNGGA,201247,4153.20728,N,8739.64299,W,4,12,1.23,181.6,M,-33.8,M,10,0000*69
2024-07-29 15:12:48,$GNGGA,201248,4153.20667,N,8739.64297,W,4,12,1.39,181.6,M,-33.8,M,11,0000*68
2024-07-29 15:12:49,$GNGGA,201249,4153.20603,N,8739.64287,W,4,12,1.44,181.5,M,-33.8,M,12,0000*60
2024-07-29 15:12:51,$GNGGA,201251,4153.20474,N,8739.64226,W,4,12,0.89,181.4,M,-33.8,M,14,0000*67
2024-07-29 15:12:52,$GNGGA,201252,4153.20423,N,8739.6416,W,4,12,1.15,181.5,M,-33.8,M,15,0000*63
2024-07-29 15:12:53,$GNGGA,201253,4153.20395,N,8739.64052,W,2,12,1.09,180.7,M,-33.8,M,16,0000*63
2024-07-29 15:12:54,$GNGGA,201254,4153.20365,N,8739.64,W,5,12,1.15,181,M,-33.8,M,17,0000*61
2024-07-29 15:12:55,$GNGGA,201255,4153.20342,N,8739.6392,W,5,12,1.09,181.5,M,-33.8,M,18,0000*6E
2024-07-29 15:12:56,$GNGGA,201256,4153.20318,N,8739.63876,W,5,12,1.09,181.7,M,-33.8,M,19,0000*63
2024-07-29 15:12:57,$GNGGA,201257,4153.20306,N,8739.63878,W,4,12,1.15,181.7,M,-33.8,M,20,0000*65
2024-07-29 15:12:58,$GNGGA,201258,4153.20294,N,8739.63908,W,4,12,0.97,181.6,M,-33.8,M,21,0000*6D
2024-07-29 15:13:01,$GNGGA,201301,4153.20275,N,8739.64028,W,4,12,0.92,181.5,M,-33.8,M,4,0000*52
2024-07-29 15:13:02,$GNGGA,201302,4153.20271,N,8739.64074,W,4,12,0.99,181.6,M,-33.8,M,5,0000*55
2024-07-29 15:13:04,$GNGGA,201304,4153.20256,N,8739.64135,W,4,12,0.92,181.6,M,-33.8,M,7,0000*5B
2024-07-29 15:13:06,$GNGGA,201306,4153.20249,N,8739.64109,W,4,12,0.83,181.7,M,-33.8,M,9,0000*57
2024-07-29 15:13:07,$GNGGA,201307,4153.20254,N,8739.64063,W,4,12,0.97,181.5,M,-33.8,M,10,0000*68
2024-07-29 15:13:08,$GNGGA,201308,4153.20258,N,8739.63995,W,4,12,1.08,181.4,M,-33.8,M,11,0000*6B
2024-07-29 15:13:09,$GNGGA,201309,4153.20256,N,8739.63904,W,4,12,1.08,181.3,M,-33.8,M,12,0000*68
2024-07-29 15:13:11,$GNGGA,201311,4153.20265,N,8739.6373,W,4,12,1,181.5,M,-33.8,M,14,0000*60
2024-07-29 15:13:12,$GNGGA,201312,4153.20269,N,8739.63661,W,4,12,1,181.6,M,-33.8,M,15,0000*68
2024-07-29 15:13:13,$GNGGA,201313,4153.2027,N,8739.63588,W,4,12,1,181.5,M,-33.8,M,16,0000*65
2024-07-29 15:13:14,$GNGGA,201314,4153.20273,N,8739.63509,W,4,12,1.03,181.5,M,-33.8,M,17,0000*6A
2024-07-29 15:13:15,$GNGGA,201315,4153.20276,N,8739.63442,W,4,12,1.03,181.6,M,-33.8,M,18,0000*6C
2024-07-29 15:13:16,$GNGGA,201316,4153.20287,N,8739.63355,W,4,12,1.03,181.5,M,-33.8,M,19,0000*62
2024-07-29 15:13:17,$GNGGA,201317,4153.203,N,8739.63268,W,4,12,1.14,181.3,M,-33.8,M,20,0000*68
2024-07-29 15:13:18,$GNGGA,201318,4153.20304,N,8739.63179,W,4,12,1.14,181.4,M,-33.8,M,21,0000*66
2024-07-29 15:13:19,$GNGGA,201319,4153.20307,N,8739.63093,W,4,12,1.14,181.4,M,-33.8,M,22,0000*62
2024-07-29 15:13:20,$GNGGA,201320,4153.20314,N,8739.63012,W,4,12,1.14,181.4,M,-33.8,M,3,0000*50
2024-07-29 15:13:21,$GNGGA,201321,4153.20316,N,8739.62927,W,4,12,1.03,181.6,M,-33.8,M,4,0000*5E
2024-07-29 15:13:22,$GNGGA,201322,4153.20309,N,8739.6284,W,4,12,1.03,181.6,M,-33.8,M,5,0000*52
2024-07-29 15:13:23,$GNGGA,201323,4153.20306,N,8739.62751,W,4,12,1.07,181.7,M,-33.8,M,6,0000*55
2024-07-29 15:13:25,$GNGGA,201325,4153.20302,N,8739.62565,W,4,12,1.1,181.7,M,-33.8,M,8,0000*5A
2024-07-29 15:13:26,$GNGGA,201326,4153.20301,N,8739.62474,W,4,12,1.1,181.7,M,-33.8,M,9,0000*5A
2024-07-29 15:13:27,$GNGGA,201327,4153.203,N,8739.62378,W,4,12,1.1,181.6,M,-33.8,M,10,0000*68
2024-07-29 15:13:28,$GNGGA,201328,4153.20301,N,8739.62286,W,4,12,1.1,181.7,M,-33.8,M,11,0000*66
2024-07-29 15:13:29,$GNGGA,201329,4153.20301,N,8739.62189,W,4,12,1.07,181.6,M,-33.8,M,12,0000*6F
2024-07-29 15:13:30,$GNGGA,201330,4153.20305,N,8739.62091,W,4,12,1.1,181.5,M,-33.8,M,3,0000*5E
2024-07-29 15:13:31,$GNGGA,201331,4153.20308,N,8739.61996,W,4,12,1.05,181.6,M,-33.8,M,4,0000*5F
2024-07-29 15:13:32,$GNGGA,201332,4153.20312,N,8739.61901,W,4,12,1.1,181.6,M,-33.8,M,5,0000*5C
2024-07-29 15:13:33,$GNGGA,201333,4153.20316,N,8739.61804,W,4,12,1.1,181.6,M,-33.8,M,6,0000*5E
2024-07-29 15:13:34,$GNGGA,201334,4153.2032,N,8739.6171,W,4,12,1.1,181.6,M,-33.8,M,7,0000*57
2024-07-29 15:13:35,$GNGGA,201335,4153.20325,N,8739.61613,W,4,12,1.07,181.6,M,-33.8,M,8,0000*58
2024-07-29 15:13:36,$GNGGA,201336,4153.20319,N,8739.61499,W,5,12,1.07,182.1,M,-33.8,M,9,0000*50
2024-07-29 15:13:37,$GNGGA,201337,4153.20335,N,8739.61429,W,5,12,1.07,181.8,M,-33.8,M,10,0000*66
2024-07-29 15:13:39,$GNGGA,201339,4153.20333,N,8739.61239,W,5,12,1.1,181.5,M,-33.8,M,12,0000*60
2024-07-29 15:13:40,$GNGGA,201340,4153.20325,N,8739.61144,W,5,12,1.26,182.1,M,-33.8,M,3,0000*52
2024-07-29 15:13:41,$GNGGA,201341,4153.20316,N,8739.61045,W,5,12,1.26,181.6,M,-33.8,M,4,0000*50
2024-07-29 15:13:42,$GNGGA,201342,4153.20313,N,8739.60949,W,4,12,1.1,181.7,M,-33.8,M,5,0000*56
2024-07-29 15:13:43,$GNGGA,201343,4153.20307,N,8739.60852,W,4,12,1.1,181.5,M,-33.8,M,6,0000*58
2024-07-29 15:13:44,$GNGGA,201344,4153.20301,N,8739.60753,W,4,12,1.07,181.4,M,-33.8,M,7,0000*51
2024-07-29 15:13:45,$GNGGA,201345,4153.2029,N,8739.60656,W,4,12,1.26,181.7,M,-33.8,M,8,0000*52
2024-07-29 15:13:46,$GNGGA,201346,4153.2028,N,8739.60557,W,4,12,1.1,181.7,M,-33.8,M,9,0000*56
2024-07-29 15:13:47,$GNGGA,201347,4153.20278,N,8739.60458,W,4,12,1.1,181.5,M,-33.8,M,10,0000*64
2024-07-29 15:13:48,$GNGGA,201348,4153.20272,N,8739.6036,W,5,12,1.26,181.7,M,-33.8,M,11,0000*6A
2024-07-29 15:13:49,$GNGGA,201349,4153.2027,N,8739.60261,W,5,12,1.18,181.8,M,-33.8,M,12,0000*68
2024-07-29 15:13:50,$GNGGA,201350,4153.20273,N,8739.60166,W,5,12,1.12,181.5,M,-33.8,M,13,0000*61
2024-07-29 15:13:51,$GNGGA,201351,4153.20276,N,8739.60065,W,5,12,1.09,181.4,M,-33.8,M,14,0000*6B
2024-07-29 15:13:52,$GNGGA,201352,4153.20282,N,8739.59967,W,5,12,1.09,181.3,M,-33.8,M,15,0000*64
2024-07-29 15:13:53,$GNGGA,201353,4153.20287,N,8739.59871,W,5,12,1.09,181.4,M,-33.8,M,16,0000*62
2024-07-29 15:13:55,$GNGGA,201355,4153.20305,N,8739.59677,W,5,12,1.09,181.6,M,-33.8,M,18,0000*6B
2024-07-29 15:13:56,$GNGGA,201356,4153.20329,N,8739.59585,W,5,12,1.09,181.4,M,-33.8,M,19,0000*6B
2024-07-29 15:13:57,$GNGGA,201357,4153.20337,N,8739.59472,W,2,12,1.09,181.8,M,-33.8,M,20,0000*6D
2024-07-29 15:13:58,$GNGGA,201358,4153.20345,N,8739.59361,W,2,12,1.09,181.4,M,-33.8,M,21,0000*6F
2024-07-29 15:13:59,$GNGGA,201359,4153.20348,N,8739.59258,W,2,12,1.09,181.9,M,-33.8,M,22,0000*66
2024-07-29 15:14:01,$GNGGA,201401,4153.20378,N,8739.59089,W,5,12,1.09,181.9,M,-33.8,M,4,0000*52
2024-07-29 15:14:02,$GNGGA,201402,4153.20383,N,8739.58996,W,5,12,1.09,182,M,-33.8,M,5,0000*58
2024-07-29 15:14:03,$GNGGA,201403,4153.2039,N,8739.58903,W,5,12,1.09,182,M,-33.8,M,6,0000*54
2024-07-29 15:14:04,$GNGGA,201404,4153.20397,N,8739.58811,W,5,12,1.14,182,M,-33.8,M,7,0000*5B
2024-07-29 15:14:05,$GNGGA,201405,4153.20408,N,8739.5872,W,5,12,1.09,182,M,-33.8,M,8,0000*55
2024-07-29 15:14:08,$GNGGA,201408,4153.20421,N,8739.58437,W,5,12,1.09,182.2,M,-33.8,M,11,0000*6C
2024-07-29 15:14:09,$GNGGA,201409,4153.20417,N,8739.58343,W,5,12,1.09,182.3,M,-33.8,M,12,0000*6E
2024-07-29 15:14:10,$GNGGA,201410,4153.20418,N,8739.5825,W,5,12,1.09,182.2,M,-33.8,M,8,0000*50
2024-07-29 15:14:11,$GNGGA,201411,4153.20422,N,8739.58156,W,5,12,1.09,182.2,M,-33.8,M,4,0000*51
2024-07-29 15:14:12,$GNGGA,201412,4153.20427,N,8739.58065,W,5,12,1.03,182.1,M,-33.8,M,5,0000*5E
2024-07-29 15:14:13,$GNGGA,201413,4153.20429,N,8739.57972,W,5,12,1.09,182.1,M,-33.8,M,6,0000*58
2024-07-29 15:14:14,$GNGGA,201414,4153.20429,N,8739.57878,W,5,12,1.1,182.2,M,-33.8,M,7,0000*5E
2024-07-29 15:14:16,$GNGGA,201416,4153.20429,N,8739.57697,W,5,12,1.09,182.3,M,-33.8,M,9,0000*54
2024-07-29 15:14:17,$GNGGA,201417,4153.2043,N,8739.57606,W,5,12,1.1,182.3,M,-33.8,M,10,0000*65
2024-07-29 15:14:18,$GNGGA,201418,4153.20431,N,8739.57512,W,5,12,1.1,182.3,M,-33.8,M,11,0000*6C
2024-07-29 15:14:19,$GNGGA,201419,4153.20427,N,8739.5742,W,5,12,1.1,182.2,M,-33.8,M,12,0000*68
2024-07-29 15:14:20,$GNGGA,201420,4153.20422,N,8739.57326,W,5,12,1.04,182.2,M,-33.8,M,13,0000*62
2024-07-29 15:14:21,$GNGGA,201421,4153.20419,N,8739.57232,W,5,12,1.05,182.2,M,-33.8,M,14,0000*69
2024-07-29 15:14:22,$GNGGA,201422,4153.2042,N,8739.5714,W,5,12,1.12,182,M,-33.8,M,15,0000*63
2024-07-29 15:14:23,$GNGGA,201423,4153.20423,N,8739.57047,W,5,12,0.84,181.9,M,-33.8,M,16,0000*60
2024-07-29 15:14:24,$GNGGA,201424,4153.20422,N,8739.56952,W,5,12,0.84,181.9,M,-33.8,M,17,0000*6B
2024-07-29 15:14:25,$GNGGA,201425,4153.20422,N,8739.56856,W,5,12,1.01,181.9,M,-33.8,M,18,0000*6C
2024-07-29 15:14:26,$GNGGA,201426,4153.20425,N,8739.56762,W,5,12,1.01,181.9,M,-33.8,M,19,0000*61
2024-07-29 15:14:27,$GNGGA,201427,4153.20427,N,8739.56669,W,5,12,1.01,181.9,M,-33.8,M,20,0000*62
2024-07-29 15:14:28,$GNGGA,201428,4153.20429,N,8739.56576,W,5,12,1.06,181.8,M,-33.8,M,21,0000*69
2024-07-29 15:14:29,$GNGGA,201429,4153.2043,N,8739.56488,W,5,12,1.06,181.7,M,-33.8,M,22,0000*6C
2024-07-29 15:14:30,$GNGGA,201430,4153.2043,N,8739.56399,W,5,12,1.06,181.7,M,-33.8,M,13,0000*61
2024-07-29 15:14:31,$GNGGA,201431,4153.20427,N,8739.56325,W,5,12,1.01,181.7,M,-33.8,M,14,0000*61
2024-07-29 15:14:32,$GNGGA,201432,4153.20426,N,8739.5627,W,5,12,1.06,181.7,M,-33.8,M,15,0000*64
2024-07-29 15:14:33,$GNGGA,201433,4153.20428,N,8739.56219,W,5,12,1.06,181.7,M,-33.8,M,16,0000*67
2024-07-29 15:14:34,$GNGGA,201434,4153.20419,N,8739.56167,W,5,12,1.06,181.7,M,-33.8,M,17,0000*69
2024-07-29 15:14:35,$GNGGA,201435,4153.20407,N,8739.56107,W,5,12,1.04,181.7,M,-33.8,M,18,0000*6C
2024-07-29 15:14:36,$GNGGA,201436,4153.20402,N,8739.56039,W,5,12,1.06,181.6,M,-33.8,M,19,0000*64
2024-07-29 15:14:37,$GNGGA,201437,4153.20407,N,8739.5597,W,5,12,1.01,181.6,M,-33.8,M,20,0000*6A
2024-07-29 15:14:38,$GNGGA,201438,4153.20416,N,8739.55898,W,5,12,1.06,181.7,M,-33.8,M,21,0000*65
2024-07-29 15:14:39,$GNGGA,201439,4153.20418,N,8739.55823,W,5,12,1.06,181.9,M,-33.8,M,22,0000*67
2024-07-29 15:14:40,$GNGGA,201440,4153.20414,N,8739.55749,W,5,12,1.01,181.9,M,-33.8,M,28,0000*6B
2024-07-29 15:14:41,$GNGGA,201441,4153.20408,N,8739.5568,W,5,12,1.06,181.9,M,-33.8,M,29,0000*65
2024-07-29 15:14:42,$GNGGA,201442,4153.20405,N,8739.55625,W,5,12,1.06,181.8,M,-33.8,M,30,0000*6D
2024-07-29 15:14:43,$GNGGA,201443,4153.20399,N,8739.55555,W,5,12,1.06,181.7,M,-33.8,M,31,0000*64
2024-07-29 15:14:44,$GNGGA,201444,4153.20397,N,8739.5546,W,5,12,1.06,181.5,M,-33.8,M,32,0000*6B
2024-07-29 15:14:45,$GNGGA,201445,4153.204,N,8739.55367,W,5,12,0.88,181.5,M,-33.8,M,33,0000*65
2024-07-29 15:14:46,$GNGGA,201446,4153.20409,N,8739.55277,W,5,12,0.91,181.6,M,-33.8,M,34,0000*63
2024-07-29 15:14:47,$GNGGA,201447,4153.20416,N,8739.55188,W,5,12,1.12,181.7,M,-33.8,M,35,0000*65
2024-07-29 15:14:48,$GNGGA,201448,4153.20425,N,8739.5511,W,5,12,1,181.7,M,-33.8,M,36,0000*6B
2024-07-29 15:14:49,$GNGGA,201449,4153.20433,N,8739.55041,W,5,12,0.84,181.8,M,-33.8,M,37,0000*6B
2024-07-29 15:14:50,$GNGGA,201450,4153.20437,N,8739.54965,W,5,12,1.03,181.9,M,-33.8,M,38,0000*69
2024-07-29 15:14:51,$GNGGA,201451,4153.20437,N,8739.54889,W,5,12,1.1,182,M,-33.8,M,4,0000*5C
2024-07-29 15:14:52,$GNGGA,201452,4153.2044,N,8739.54813,W,5,12,1,181.9,M,-33.8,M,5,0000*56
2024-07-29 15:14:53,$GNGGA,201453,4153.20444,N,8739.54737,W,5,12,1,181.9,M,-33.8,M,6,0000*59
2024-07-29 15:14:54,$GNGGA,201454,4153.20447,N,8739.54656,W,5,12,0.8,181.8,M,-33.8,M,7,0000*52
2024-07-29 15:14:55,$GNGGA,201455,4153.2045,N,8739.54566,W,5,12,1.21,181.8,M,-33.8,M,8,0000*50
2024-07-29 15:14:56,$GNGGA,201456,4153.20452,N,8739.54476,W,5,12,1.21,181.8,M,-33.8,M,9,0000*50
2024-07-29 15:14:57,$GNGGA,201457,4153.20454,N,8739.54387,W,5,12,0.87,181.7,M,-33.8,M,10,0000*64
2024-07-29 15:14:58,$GNGGA,201458,4153.20456,N,8739.54299,W,5,12,0.87,181.7,M,-33.8,M,11,0000*66
2024-07-29 15:14:59,$GNGGA,201459,4153.20464,N,8739.54212,W,5,12,0.92,181.6,M,-33.8,M,12,0000*63
2024-07-29 15:15:01,$GNGGA,201501,4153.20534,N,8739.54059,W,2,12,0.85,181.3,M,-33.8,M,14,0000*64
2024-07-29 15:15:02,$GNGGA,201502,4153.20594,N,8739.54018,W,2,12,0.92,180.9,M,-33.8,M,15,0000*64
2024-07-29 15:15:03,$GNGGA,201503,4153.20642,N,8739.53994,W,2,12,0.82,181.2,M,-33.8,M,16,0000*6F
2024-07-29 15:15:04,$GNGGA,201504,4153.20676,N,8739.53978,W,5,12,0.85,181.4,M,-33.8,M,17,0000*6A
2024-07-29 15:15:05,$GNGGA,201505,4153.20704,N,8739.53963,W,5,12,0.88,181.5,M,-33.8,M,18,0000*66
2024-07-29 15:15:06,$GNGGA,201506,4153.20741,N,8739.5395,W,5,12,0.95,181.7,M,-33.8,M,19,0000*6B
2024-07-29 15:15:07,$GNGGA,201507,4153.20787,N,8739.53935,W,5,12,1.04,181.9,M,-33.8,M,20,0000*6E
2024-07-29 15:15:08,$GNGGA,201508,4153.20835,N,8739.53925,W,2,12,1.17,182,M,-33.8,M,21,0000*68
2024-07-29 15:15:09,$GNGGA,201509,4153.20885,N,8739.53921,W,5,12,1.17,182.2,M,-33.8,M,22,0000*60
2024-07-29 15:15:11,$GNGGA,201511,4153.2097,N,8739.53903,W,5,12,1.04,182.6,M,-33.8,M,14,0000*61
2024-07-29 15:15:13,$GNGGA,201513,4153.21057,N,8739.53899,W,5,12,1.23,183.1,M,-33.8,M,16,0000*6D
2024-07-29 15:15:14,$GNGGA,201514,4153.21113,N,8739.53893,W,5,12,1.62,183.3,M,-33.8,M,17,0000*67
2024-07-29 15:15:15,$GNGGA,201515,4153.21177,N,8739.53896,W,5,12,1.53,183.4,M,-33.8,M,18,0000*6B
2024-07-29 15:15:17,$GNGGA,201517,4153.21316,N,8739.53928,W,5,12,1.65,183.2,M,-33.8,M,20,0000*60
2024-07-29 15:15:18,$GNGGA,201518,4153.21379,N,8739.53939,W,5,12,1.53,183.2,M,-33.8,M,21,0000*62
2024-07-29 15:15:19,$GNGGA,201519,4153.21443,N,8739.53949,W,2,12,1.6,183.2,M,-33.8,M,22,0000*6E
2024-07-29 15:15:20,$GNGGA,201520,4153.2152,N,8739.53955,W,5,12,1.6,182.8,M,-33.8,M,13,0000*63
2024-07-29 15:15:21,$GNGGA,201521,4153.21591,N,8739.53969,W,5,12,1.6,182.9,M,-33.8,M,4,0000*50
2024-07-29 15:15:22,$GNGGA,201522,4153.21649,N,8739.5402,W,5,12,1.6,182.9,M,-33.8,M,5,0000*57
2024-07-29 15:15:23,$GNGGA,201523,4153.21691,N,8739.54103,W,5,12,1.85,183,M,-33.8,M,6,0000*53
2024-07-29 15:15:24,$GNGGA,201524,4153.21719,N,8739.54181,W,2,12,1.85,183.3,M,-33.8,M,7,0000*5A
2024-07-29 15:15:25,$GNGGA,201525,4153.21735,N,8739.54242,W,2,12,1.85,183.7,M,-33.8,M,8,0000*52
2024-07-29 15:15:26,$GNGGA,201526,4153.21739,N,8739.5428,W,2,12,1.85,183.9,M,-33.8,M,9,0000*5C
2024-07-29 15:15:27,$GNGGA,201527,4153.21737,N,8739.54312,W,2,12,1.85,184.1,M,-33.8,M,10,0000*6E
2024-07-29 15:15:28,$GNGGA,201528,4153.21765,N,8739.54354,W,2,12,3.55,184.5,M,-33.8,M,11,0000*6E
2024-07-29 15:15:29,$GNGGA,201529,4153.21774,N,8739.5439,W,2,12,3.64,184.6,M,-33.8,M,12,0000*65
2024-07-29 15:15:30,$GNGGA,201530,4153.21784,N,8739.54436,W,1,9,4.38,184.9,M,-33.8,M,,*7C
2024-07-29 15:15:31,$GNGGA,201531,4153.21795,N,8739.54474,W,1,5,11.8,185.1,M,-33.8,M,,*49
2024-07-29 15:15:32,$GNGGA,201532,,,,,0,0,99.99,,,,,,*7F
2024-07-29 15:15:33,$GNGGA,201533,,,,,0,0,99.99,,,,,,*7E
2024-07-29 15:15:34,$GNGGA,201534,,,,,0,0,99.99,,,,,,*79
2024-07-29 15:15:35,$GNGGA,201535,,,,,0,0,99.99,,,,,,*78
2024-07-29 15:15:36,$GNGGA,201536,,,,,0,0,99.99,,,,,,*7B
2024-07-29 15:15:37,$GNGGA,201537,,,,,0,0,99.99,,,,,,*7A
2024-07-29 15:15:38,$GNGGA,201538,,,,,0,0,99.99,,,,,,*75
2024-07-29 15:15:39,$GNGGA,201539,,,,,0,0,99.99,,,,,,*74
2024-07-29 15:15:40,$GNGGA,201540,,,,,0,0,99.99,,,,,,*7A
2024-07-29 15:15:41,$GNGGA,201541,,,,,0,0,99.99,,,,,,*7B
2024-07-29 15:15:42,$GNGGA,201542,,,,,0,0,99.99,,,,,,*78
2024-07-29 15:15:43,$GNGGA,201543,,,,,0,0,99.99,,,,,,*79
2024-07-29 15:15:44,$GNGGA,201544,,,,,0,0,99.99,,,,,,*7E
2024-07-29 15:15:45,$GNGGA,201545,,,,,0,0,99.99,,,,,,*7F
2024-07-29 15:15:46,$GNGGA,201546,,,,,0,0,99.99,,,,,,*7C
2024-07-29 15:15:47,$GNGGA,201547,,,,,0,0,99.99,,,,,,*7D
2024-07-29 15:15:48,$GNGGA,201548,,,,,0,0,99.99,,,,,,*72
2024-07-29 15:15:49,$GNGGA,201549,,,,,0,0,99.99,,,,,,*73
2024-07-29 15:15:50,$GNGGA,201550,,,,,0,0,99.99,,,,,,*7B
2024-07-29 15:15:51,$GNGGA,201551,,,,,0,0,99.99,,,,,,*7A
2024-07-29 15:15:52,$GNGGA,201552,,,,,0,0,99.99,,,,,,*79
2024-07-29 15:15:53,$GNGGA,201553,,,,,0,0,99.99,,,,,,*78
2024-07-29 15:15:54,$GNGGA,201554,,,,,0,5,59.71,,,,,,*70
2024-07-29 15:15:55,$GNGGA,201555,,,,,0,0,99.99,,,,,,*7E
2024-07-29 15:15:56,$GNGGA,201556,,,,,0,0,99.99,,,,,,*7D
2024-07-29 15:15:57,$GNGGA,201557,,,,,0,0,99.99,,,,,,*7C
2024-07-29 15:15:58,$GNGGA,201558,,,,,0,0,99.99,,,,,,*73
2024-07-29 15:15:59,$GNGGA,201559,,,,,0,0,99.99,,,,,,*72
2024-07-29 15:16:00,$GNGGA,201600,,,,,0,0,99.99,,,,,,*7D
2024-07-29 15:16:01,$GNGGA,201601,,,,,0,0,99.99,,,,,,*7C
2024-07-29 15:16:02,$GNGGA,201602,,,,,0,0,99.99,,,,,,*7F
2024-07-29 15:16:03,$GNGGA,201603,,,,,0,0,99.99,,,,,,*7E
2024-07-29 15:16:04,$GNGGA,201604,,,,,0,0,99.99,,,,,,*79
2024-07-29 15:16:05,$GNGGA,201605,,,,,0,0,99.99,,,,,,*78
2024-07-29 15:16:06,$GNGGA,201606,,,,,0,0,99.99,,,,,,*7B
2024-07-29 15:16:07,$GNGGA,201607,,,,,0,5,6.09,,,,,,*40
2024-07-29 15:16:08,$GNGGA,201608,,,,,0,0,99.99,,,,,,*75
2024-07-29 15:16:09,$GNGGA,201609,,,,,0,7,8.34,,,,,,*4C
2024-07-29 15:16:10,$GNGGA,201610,4153.20665,N,8739.55071,W,1,9,1.26,191.1,M,-33.8,M,,*72
2024-07-29 15:16:11,$GNGGA,201611,4153.20633,N,8739.55058,W,2,9,2.6,190.4,M,-33.8,M,29,0000*68
2024-07-29 15:16:12,$GNGGA,201612,4153.20885,N,8739.54634,W,2,9,1.94,195.8,M,-33.8,M,30,0000*6C
2024-07-29 15:16:14,$GNGGA,201614,4153.21122,N,8739.54521,W,2,5,4.85,199.1,M,-33.8,M,32,0000*66
2024-07-29 15:16:15,$GNGGA,201615,4153.21262,N,8739.54512,W,1,6,3.69,199.2,M,-33.8,M,,*79
2024-07-29 15:16:16,$GNGGA,201616,4153.21414,N,8739.54503,W,2,12,2.02,199.2,M,-33.8,M,34,0000*6E
2024-07-29 15:16:17,$GNGGA,201617,4153.21612,N,8739.54695,W,2,12,1.21,195.8,M,-33.8,M,35,0000*62
2024-07-29 15:16:18,$GNGGA,201618,4153.21677,N,8739.54719,W,2,12,1.21,196.4,M,-33.8,M,36,0000*67
2024-07-29 15:16:20,$GNGGA,201620,4153.2174,N,8739.54763,W,2,12,1.07,200.7,M,-33.8,M,38,0000*61
2024-07-29 15:16:21,$GNGGA,201621,4153.21766,N,8739.54752,W,2,12,1.07,199.8,M,-33.8,M,14,0000*64
2024-07-29 15:16:22,$GNGGA,201622,4153.2179,N,8739.54671,W,2,12,1.07,198.2,M,-33.8,M,15,0000*64
2024-07-29 15:16:23,$GNGGA,201623,4153.21791,N,8739.54638,W,2,12,1.3,199.7,M,-33.8,M,16,0000*6A
2024-07-29 15:16:24,$GNGGA,201624,4153.21793,N,8739.54603,W,2,12,1.3,199.9,M,-33.8,M,17,0000*68
2024-07-29 15:16:25,$GNGGA,201625,4153.21794,N,8739.54582,W,2,12,1.37,199.5,M,-33.8,M,18,0000*60
2024-07-29 15:16:26,$GNGGA,201626,4153.2182,N,8739.54593,W,2,12,1.37,199.7,M,-33.8,M,19,0000*60
2024-07-29 15:16:27,$GNGGA,201627,4153.21841,N,8739.54596,W,2,12,1.41,199.3,M,-33.8,M,20,0000*6C
2024-07-29 15:16:29,$GNGGA,201629,4153.21947,N,8739.54457,W,2,12,1.02,189.5,M,-33.8,M,22,0000*6B
2024-07-29 15:16:30,$GNGGA,201630,4153.22038,N,8739.54301,W,2,12,1.02,183.5,M,-33.8,M,23,0000*6E
2024-07-29 15:16:31,$GNGGA,201631,4153.22062,N,8739.54248,W,2,12,1.02,182.7,M,-33.8,M,14,0000*6B
2024-07-29 15:16:32,$GNGGA,201632,4153.22082,N,8739.5425,W,2,12,1.04,182.5,M,-33.8,M,15,0000*6A