Datetime,NMEA msg,UTC time,latitude,northing,longitude,easting,fix mode status,space vehicles used,hdop,altitude msl,units,geoid (HAE-MSL),units,Age of DGNSS corrections,Ref station,latitude_decimal,longitude_decimal,HAE
2024-07-29 15:08:35,$GNGGA,200835,4153.22599,N,8739.49731,W,1,6,7.31,227.2,M,-33.8,M,,*74,41.88709983333333,-87.6582885,193.39999999999998
2024-07-29 15:08:36,$GNGGA,200836,4153.22573,N,8739.49107,W,1,12,1.04,231.8,M,-33.8,M,,*78,41.8870955,-87.6581845,198.0
2024-07-29 15:08:37,$GNGGA,200837,4153.22714,N,8739.5054,W,1,12,2.35,217.4,M,-33.8,M,,*7C,41.887119,-87.65842333333333,183.60000000000002
2024-07-29 15:08:38,$GNGGA,200838,4153.22074,N,8739.53747,W,1,12,1.5,196,M,-33.8,M,,*7A,41.88701233333333,-87.65895783333333,162.2
2024-07-29 15:08:39,$GNGGA,200839,4153.21935,N,8739.53949,W,1,12,1.5,193.4,M,-33.8,M,,*75,41.886989166666666,-87.6589915,159.60000000000002
2024-07-29 15:08:40,$GNGGA,200840,4153.21771,N,8739.53965,W,2,12,6.04,193.2,M,-33.8,M,3,0000*55,41.88696183333333,-87.65899416666667,159.39999999999998
2024-07-29 15:08:41,$GNGGA,200841,4153.21793,N,8739.53889,W,5,12,2.82,192.2,M,-33.8,M,4,0000*50,41.8869655,-87.6589815,158.39999999999998
2024-07-29 15:08:42,$GNGGA,200842,4153.218,N,8739.53886,W,5,12,2.82,190.5,M,-33.8,M,5,0000*5D,41.886966666666666,-87.658981,156.7
2024-07-29 15:08:43,$GNGGA,200843,4153.21801,N,8739.53897,W,5,12,2.82,189.4,M,-33.8,M,6,0000*57,41.88696683333333,-87.65898283333334,155.60000000000002
2024-07-29 15:08:44,$GNGGA,200844,4153.21798,N,8739.53906,W,5,12,2.82,188.8,M,-33.8,M,7,0000*5A,41.88696633333333,-87.65898433333334,155.0
2024-07-29 15:08:45,$GNGGA,200845,4153.218,N,8739.53911,W,5,12,2.82,188.4,M,-33.8,M,8,0000*50,41.886966666666666,-87.65898516666667,154.60000000000002
2024-07-29 15:08:46,$GNGGA,200846,4153.21814,N,8739.53916,W,2,12,2.87,188.2,M,-33.8,M,9,0000*54,41.886969,-87.658986,154.39999999999998
2024-07-29 15:08:47,$GNGGA,200847,4153.21847,N,8739.53932,W,2,12,2.82,188,M,-33.8,M,10,0000*6A,41.8869745,-87.65898866666667,154.2
2024-07-29 15:08:48,$GNGGA,200848,4153.2189,N,8739.53959,W,5,12,2.82,187.6,M,-33.8,M,11,0000*6D,41.886981666666664,-87.65899316666666,153.8
2024-07-29 15:08:49,$GNGGA,200849,4153.21938,N,8739.53989,W,5,12,2.82,187.6,M,-33.8,M,12,0000*61,41.886989666666665,-87.65899816666666,153.8
2024-07-29 15:08:50,$GNGGA,200850,4153.21995,N,8739.54019,W,5,12,2.82,187.6,M,-33.8,M,13,0000*68,41.88699916666667,-87.65900316666666,153.8
2024-07-29 15:08:51,$GNGGA,200851,4153.22052,N,8739.54019,W,5,12,2.82,187.8,M,-33.8,M,14,0000*61,41.88700866666667,-87.65900316666666,154.0
2024-07-29 15:08:52,$GNGGA,200852,4153.2211,N,8739.54006,W,5,12,2.82,188.1,M,-33.8,M,15,0000*6C,41.88701833333333,-87.659001,154.3
2024-07-29 15:08:53,$GNGGA,200853,4153.22176,N,8739.54006,W,5,12,2.82,188.1,M,-33.8,M,16,0000*6E,41.88702933333333,-87.659001,154.3
2024-07-29 15:08:54,$GNGGA,200854,4153.22245,N,8739.54004,W,5,12,2.82,188.1,M,-33.8,M,17,0000*69,41.88704083333333,-87.65900066666667,154.3
2024-07-29 15:08:55,$GNGGA,200855,4153.22311,N,8739.53993,W,5,12,2.82,188.3,M,-33.8,M,18,0000*65,41.88705183333333,-87.65899883333333,154.5
2024-07-29 15:08:56,$GNGGA,200856,4153.22381,N,8739.54,W,5,12,2.82,188.2,M,-33.8,M,19,0000*6B,41.8870635,-87.659,154.39999999999998
2024-07-29 15:08:57,$GNGGA,200857,4153.22451,N,8739.54006,W,5,12,2.82,188,M,-33.8,M,20,0000*6E,41.88707516666667,-87.659001,154.2
2024-07-29 15:08:58,$GNGGA,200858,4153.22521,N,8739.54,W,5,12,2.83,188.1,M,-33.8,M,21,0000*60,41.887086833333335,-87.659,154.3
2024-07-29 15:08:59,$GNGGA,200859,4153.2259,N,8739.53999,W,5,12,2.83,188,M,-33.8,M,22,0000*67,41.887098333333334,-87.65899983333334,154.2
2024-07-29 15:09:00,$GNGGA,200900,4153.22659,N,8739.54004,W,5,12,2.83,187.9,M,-33.8,M,23,0000*61,41.887109833333334,-87.65900066666667,154.10000000000002
2024-07-29 15:09:01,$GNGGA,200901,4153.22726,N,8739.54,W,5,12,2.83,188,M,-33.8,M,24,0000*6C,41.887121,-87.659,154.2
2024-07-29 15:09:02,$GNGGA,200902,4153.22798,N,8739.54007,W,5,12,2.83,187.7,M,-33.8,M,25,0000*64,41.887133,-87.65900116666667,153.89999999999998
2024-07-29 15:09:03,$GNGGA,200903,4153.22871,N,8739.54018,W,5,12,2.83,187.6,M,-33.8,M,26,0000*61,41.88714516666667,-87.659003,153.8
2024-07-29 15:09:05,$GNGGA,200905,4153.23018,N,8739.54025,W,5,12,2.83,187.4,M,-33.8,M,28,0000*63,41.887169666666665,-87.65900416666666,153.60000000000002
2024-07-29 15:09:07,$GNGGA,200907,4153.23163,N,8739.54036,W,5,12,3.25,187.3,M,-33.8,M,30,0000*6D,41.887193833333335,-87.659006,153.5
2024-07-29 15:09:09,$GNGGA,200909,4153.23322,N,8739.54059,W,5,12,3.26,187,M,-33.8,M,32,0000*6F,41.88722033333333,-87.65900983333333,153.2
2024-07-29 15:09:10,$GNGGA,200910,4153.23402,N,8739.54065,W,5,12,3.26,186.8,M,-33.8,M,8,0000*5D,41.88723366666667,-87.65901083333333,153.0
2024-07-29 15:09:11,$GNGGA,200911,4153.2348,N,8739.54065,W,5,12,3.26,186.7,M,-33.8,M,9,0000*58,41.88724666666667,-87.65901083333333,152.89999999999998
2024-07-29 15:09:12,$GNGGA,200912,4153.23555,N,8739.54062,W,5,12,3.26,186.6,M,-33.8,M,10,0000*6C,41.88725916666667,-87.65901033333333,152.8
2024-07-29 15:09:13,$GNGGA,200913,4153.23626,N,8739.54059,W,5,12,3.26,186.5,M,-33.8,M,11,0000*60,41.887271,-87.65900983333333,152.7
2024-07-29 15:09:14,$GNGGA,200914,4153.23694,N,8739.54064,W,5,12,3.26,186.5,M,-33.8,M,12,0000*63,41.88728233333333,-87.65901066666666,152.7
2024-07-29 15:09:15,$GNGGA,200915,4153.23763,N,8739.5407,W,5,12,3.26,186.4,M,-33.8,M,13,0000*6E,41.88729383333333,-87.65901166666667,152.60000000000002
2024-07-29 15:09:16,$GNGGA,200916,4153.23831,N,8739.54064,W,5,12,3.26,186.4,M,-33.8,M,14,0000*67,41.887305166666664,-87.65901066666666,152.60000000000002
2024-07-29 15:09:17,$GNGGA,200917,4153.23897,N,8739.54053,W,5,12,3.26,186.4,M,-33.8,M,15,0000*6F,41.887316166666665,-87.65900883333333,152.60000000000002
2024-07-29 15:09:18,$GNGGA,200918,4153.23963,N,8739.54045,W,5,12,3.26,186.3,M,-33.8,M,16,0000*69,41.887327166666665,-87.6590075,152.5
2024-07-29 15:09:19,$GNGGA,200919,4153.2403,N,8739.54047,W,5,12,3.26,186.3,M,-33.8,M,17,0000*63,41.88733833333333,-87.65900783333333,152.5
2024-07-29 15:09:20,$GNGGA,200920,4153.24095,N,8739.54047,W,5,12,3.26,186.3,M,-33.8,M,3,0000*53,41.88734916666667,-87.65900783333333,152.5
2024-07-29 15:09:21,$GNGGA,200921,4153.24163,N,8739.54048,W,5,12,1.87,186.1,M,-33.8,M,4,0000*59,41.8873605,-87.659008,152.3
2024-07-29 15:09:22,$GNGGA,200922,4153.24231,N,8739.54045,W,5,12,1.87,186,M,-33.8,M,5,0000*53,41.88737183333333,-87.6590075,152.2
2024-07-29 15:09:23,$GNGGA,200923,4153.24301,N,8739.54042,W,5,12,1.87,185.9,M,-33.8,M,6,0000*5E,41.8873835,-87.659007,152.10000000000002
2024-07-29 15:09:24,$GNGGA,200924,4153.24371,N,8739.54044,W,5,12,1.87,185.7,M,-33.8,M,7,0000*57,41.887395166666664,-87.65900733333334,151.89999999999998
2024-07-29 15:09:25,$GNGGA,200925,4153.24437,N,8739.54047,W,5,12,1.87,185.7,M,-33.8,M,8,0000*5F,41.887406166666665,-87.65900783333333,151.89999999999998
2024-07-29 15:09:26,$GNGGA,200926,4153.24504,N,8739.54051,W,5,12,1.87,185.6,M,-33.8,M,9,0000*5A,41.88741733333333,-87.6590085,151.8
2024-07-29 15:09:27,$GNGGA,200927,4153.24572,N,8739.54049,W,5,12,1.87,185.5,M,-33.8,M,10,0000*68,41.887428666666665,-87.65900816666667,151.7
2024-07-29 15:09:28,$GNGGA,200928,4153.24644,N,8739.54052,W,5,12,1.87,185.4,M,-33.8,M,11,0000*6B,41.88744066666667,-87.65900866666667,151.60000000000002
2024-07-29 15:09:29,$GNGGA,200929,4153.24718,N,8739.54054,W,5,12,1.87,185.4,M,-33.8,M,12,0000*67,41.887453,-87.659009,151.60000000000002
2024-07-29 15:09:31,$GNGGA,200931,4153.2486,N,8739.54057,W,5,12,1.87,185.1,M,-33.8,M,4,0000*5F,41.887476666666664,-87.6590095,151.3
2024-07-29 15:09:32,$GNGGA,200932,4153.24928,N,8739.54063,W,5,12,1.87,185,M,-33.8,M,5,0000*56,41.887488,-87.6590105,151.2
2024-07-29 15:09:33,$GNGGA,200933,4153.24996,N,8739.5407,W,5,12,1.87,184.9,M,-33.8,M,6,0000*5B,41.88749933333333,-87.65901166666667,151.10000000000002
2024-07-29 15:09:34,$GNGGA,200934,4153.25064,N,8739.54073,W,5,12,1.87,184.7,M,-33.8,M,7,0000*55,41.887510666666664,-87.65901216666667,150.89999999999998
2024-07-29 15:09:35,$GNGGA,200935,4153.25132,N,8739.54072,W,5,12,1.87,184.6,M,-33.8,M,8,0000*59,41.887522,-87.659012,150.8
2024-07-29 15:09:36,$GNGGA,200936,4153.252,N,8739.54066,W,5,12,1.87,184.4,M,-33.8,M,9,0000*5E,41.88753333333333,-87.659011,150.60000000000002
2024-07-29 15:09:37,$GNGGA,200937,4153.25269,N,8739.54059,W,5,12,1.87,184.3,M,-33.8,M,10,0000*63,41.88754483333334,-87.65900983333333,150.5
2024-07-29 15:09:38,$GNGGA,200938,4153.25337,N,8739.54057,W,5,12,1.87,184.2,M,-33.8,M,11,0000*68,41.88755616666667,-87.6590095,150.39999999999998
2024-07-29 15:09:41,$GNGGA,200941,4153.25541,N,8739.54058,W,5,12,1.4,183.8,M,-33.8,M,4,0000*5C,41.88759016666667,-87.65900966666666,150.0
2024-07-29 15:09:43,$GNGGA,200943,4153.25657,N,8739.54053,W,5,12,1.4,183.6,M,-33.8,M,6,0000*5D,41.8876095,-87.65900883333333,149.8
2024-07-29 15:09:44,$GNGGA,200944,4153.25702,N,8739.54052,W,5,12,1.4,183.6,M,-33.8,M,7,0000*5B,41.887617,-87.65900866666667,149.8
2024-07-29 15:09:45,$GNGGA,200945,4153.25727,N,8739.54049,W,5,12,1.4,183.5,M,-33.8,M,8,0000*5B,41.88762116666667,-87.65900816666667,149.7
2024-07-29 15:09:46,$GNGGA,200946,4153.25731,N,8739.54047,W,5,12,1.4,183.4,M,-33.8,M,9,0000*51,41.887621833333334,-87.65900783333333,149.60000000000002
2024-07-29 15:09:47,$GNGGA,200947,4153.25733,N,8739.54046,W,5,12,1.4,183.2,M,-33.8,M,10,0000*6D,41.88762216666667,-87.65900766666667,149.39999999999998
2024-07-29 15:09:48,$GNGGA,200948,4153.25739,N,8739.54047,W,5,12,1.4,182.7,M,-33.8,M,11,0000*6C,41.887623166666664,-87.65900783333333,148.89999999999998
2024-07-29 15:09:49,$GNGGA,200949,4153.25742,N,8739.54045,W,5,12,1.4,182.2,M,-33.8,M,12,0000*65,41.88762366666667,-87.6590075,148.39999999999998
2024-07-29 15:09:50,$GNGGA,200950,4153.25742,N,8739.54046,W,5,12,1.4,181.9,M,-33.8,M,3,0000*56,41.88762366666667,-87.65900766666667,148.10000000000002
2024-07-29 15:09:51,$GNGGA,200951,4153.25743,N,8739.54049,W,5,12,0.88,181.7,M,-33.8,M,4,0000*55,41.887623833333336,-87.65900816666667,147.89999999999998
2024-07-29 15:09:52,$GNGGA,200952,4153.25743,N,8739.54051,W,5,12,0.88,181.6,M,-33.8,M,5,0000*5F,41.887623833333336,-87.6590085,147.8
2024-07-29 15:09:53,$GNGGA,200953,4153.25743,N,8739.54052,W,5,12,0.88,181.6,M,-33.8,M,6,0000*5E,41.887623833333336,-87.65900866666667,147.8
2024-07-29 15:09:54,$GNGGA,200954,4153.25743,N,8739.54054,W,5,12,0.88,181.5,M,-33.8,M,7,0000*5D,41.887623833333336,-87.659009,147.7
2024-07-29 15:09:55,$GNGGA,200955,4153.25743,N,8739.54055,W,5,12,0.88,181.5,M,-33.8,M,8,0000*52,41.887623833333336,-87.65900916666666,147.7
2024-07-29 15:09:56,$GNGGA,200956,4153.25743,N,8739.54054,W,5,12,0.88,181.6,M,-33.8,M,9,0000*52,41.887623833333336,-87.659009,147.8
2024-07-29 15:09:57,$GNGGA,200957,4153.25741,N,8739.54058,W,5,12,0.88,182.1,M,-33.8,M,10,0000*61,41.8876235,-87.65900966666666,148.3
2024-07-29 15:09:58,$GNGGA,200958,4153.25735,N,8739.54087,W,5,12,0.88,182.3,M,-33.8,M,11,0000*6C,41.8876225,-87.6590145,148.5
2024-07-29 15:09:59,$GNGGA,200959,4153.25728,N,8739.54141,W,5,12,0.88,182.2,M,-33.8,M,12,0000*68,41.887621333333335,-87.6590235,148.39999999999998
2024-07-29 15:10:00,$GNGGA,201000,4153.25719,N,8739.54203,W,5,12,0.88,182.3,M,-33.8,M,8,0000*51,41.88761983333333,-87.65903383333334,148.5
2024-07-29 15:10:01,$GNGGA,201001,4153.25707,N,8739.54271,W,5,12,0.88,182.3,M,-33.8,M,4,0000*56,41.88761783333333,-87.65904516666667,148.5
2024-07-29 15:10:02,$GNGGA,201002,4153.25715,N,8739.54343,W,4,12,0.83,181.3,M,-33.8,M,5,0000*5E,41.88761916666667,-87.65905716666667,147.5
2024-07-29 15:10:03,$GNGGA,201003,4153.25708,N,8739.54464,W,4,12,0.83,181.3,M,-33.8,M,6,0000*52,41.887618,-87.65907733333333,147.5
2024-07-29 15:10:04,$GNGGA,201004,4153.25693,N,8739.54573,W,4,12,1.01,181.4,M,-33.8,M,7,0000*5C,41.8876155,-87.6590955,147.60000000000002
2024-07-29 15:10:05,$GNGGA,201005,4153.25686,N,8739.54667,W,4,12,1.01,181.5,M,-33.8,M,8,0000*51,41.88761433333333,-87.65911116666666,147.7
2024-07-29 15:10:06,$GNGGA,201006,4153.25684,N,8739.54759,W,4,12,1.01,181.5,M,-33.8,M,9,0000*5D,41.887614,-87.6591265,147.7
2024-07-29 15:10:07,$GNGGA,201007,4153.25672,N,8739.54851,W,4,12,1.01,181.5,M,-33.8,M,10,0000*6A,41.887612,-87.65914183333334,147.7
2024-07-29 15:10:08,$GNGGA,201008,4153.25657,N,8739.54946,W,5,12,1.01,181.5,M,-33.8,M,11,0000*65,41.8876095,-87.65915766666667,147.7
2024-07-29 15:10:09,$GNGGA,201009,4153.25648,N,8739.55042,W,5,12,1.01,181.5,M,-33.8,M,12,0000*65,41.887608,-87.65917366666666,147.7
2024-07-29 15:10:10,$GNGGA,201010,4153.25643,N,8739.55142,W,5,12,1.01,181.5,M,-33.8,M,8,0000*5C,41.88760716666667,-87.65919033333333,147.7
2024-07-29 15:10:11,$GNGGA,201011,4153.25645,N,8739.55235,W,5,12,0.98,181.5,M,-33.8,M,9,0000*58,41.8876075,-87.65920583333333,147.7
2024-07-29 15:10:12,$GNGGA,201012,4153.25648,N,8739.55332,W,5,12,1.2,181.5,M,-33.8,M,5,0000*5E,41.887608,-87.659222,147.7
2024-07-29 15:10:13,$GNGGA,201013,4153.25647,N,8739.55431,W,5,12,1.2,181.6,M,-33.8,M,6,0000*54,41.887607833333334,-87.6592385,147.8
2024-07-29 15:10:14,$GNGGA,201014,4153.25648,N,8739.55527,W,5,12,1.2,181.5,M,-33.8,M,7,0000*58,41.887608,-87.6592545,147.7
2024-07-29 15:10:15,$GNGGA,201015,4153.25652,N,8739.55619,W,5,12,1.2,181.5,M,-33.8,M,8,0000*53,41.887608666666665,-87.65926983333334,147.7
2024-07-29 15:10:16,$GNGGA,201016,4153.25636,N,8739.55722,W,5,12,1.2,181.4,M,-33.8,M,9,0000*5B,41.887606,-87.659287,147.60000000000002
2024-07-29 15:10:17,$GNGGA,201017,4153.25641,N,8739.55815,W,5,12,1.2,181.6,M,-33.8,M,10,0000*6B,41.88760683333334,-87.6593025,147.8
2024-07-29 15:10:18,$GNGGA,201018,4153.25642,N,8739.55906,W,5,12,1.2,181.7,M,-33.8,M,11,0000*64,41.887607,-87.65931766666667,147.89999999999998
2024-07-29 15:10:19,$GNGGA,201019,4153.25648,N,8739.55996,W,5,12,1.2,181.5,M,-33.8,M,12,0000*67,41.887608,-87.65933266666667,147.7
2024-07-29 15:10:20,$GNGGA,201020,4153.25639,N,8739.56089,W,5,12,1.12,181.6,M,-33.8,M,8,0000*56,41.8876065,-87.65934816666666,147.8
2024-07-29 15:10:21,$GNGGA,201021,4153.25641,N,8739.5618,W,5,12,1.12,181.5,M,-33.8,M,4,0000*5F,41.88760683333334,-87.65936333333333,147.7
2024-07-29 15:10:22,$GNGGA,201022,4153.25633,N,8739.56273,W,5,12,1.12,181.6,M,-33.8,M,5,0000*54,41.8876055,-87.65937883333334,147.8
2024-07-29 15:10:23,$GNGGA,201023,4153.25634,N,8739.56368,W,5,12,1.12,181.6,M,-33.8,M,6,0000*5A,41.887605666666666,-87.65939466666667,147.8
2024-07-29 15:10:24,$GNGGA,201024,4153.2563,N,8739.56462,W,5,12,1.12,181.7,M,-33.8,M,7,0000*54,41.887605,-87.65941033333333,147.89999999999998
2024-07-29 15:10:25,$GNGGA,201025,4153.25631,N,8739.56556,W,5,12,1.12,181.6,M,-33.8,M,8,0000*5C,41.88760516666667,-87.659426,147.8
2024-07-29 15:10:26,$GNGGA,201026,4153.25628,N,8739.56652,W,5,12,1.12,181.6,M,-33.8,M,9,0000*51,41.88760466666667,-87.659442,147.8
2024-07-29 15:10:27,$GNGGA,201027,4153.25633,N,8739.56744,W,5,12,1.12,181.6,M,-33.8,M,10,0000*64,41.8876055,-87.65945733333334,147.8
2024-07-29 15:10:28,$GNGGA,201028,4153.25629,N,8739.56839,W,5,12,1.12,181.5,M,-33.8,M,11,0000*67,41.887604833333334,-87.65947316666667,147.7
2024-07-29 15:10:29,$GNGGA,201029,4153.25628,N,8739.56932,W,5,12,1.12,181.6,M,-33.8,M,12,0000*6D,41.88760466666667,-87.65948866666666,147.8
2024-07-29 15:10:30,$GNGGA,201030,4153.25618,N,8739.57031,W,5,12,1.12,181.6,M,-33.8,M,8,0000*56,41.887603,-87.65950516666666,147.8
2024-07-29 15:10:31,$GNGGA,201031,4153.25608,N,8739.57126,W,5,12,1.12,181.6,M,-33.8,M,4,0000*5D,41.887601333333336,-87.659521,147.8
2024-07-29 15:10:32,$GNGGA,201032,4153.25619,N,8739.57218,W,5,12,1.12,181.4,M,-33.8,M,5,0000*53,41.887603166666665,-87.65953633333334,147.60000000000002
2024-07-29 15:10:33,$GNGGA,201033,4153.25602,N,8739.5732,W,5,12,1.12,181.6,M,-33.8,M,6,0000*53,41.88760033333333,-87.65955333333333,147.8
2024-07-29 15:10:34,$GNGGA,201034,4153.256,N,8739.57418,W,5,12,1.12,181.6,M,-33.8,M,7,0000*5B,41.8876,-87.65956966666667,147.8
2024-07-29 15:10:36,$GNGGA,201036,4153.25596,N,8739.57619,W,5,12,1.21,181.4,M,-33.8,M,9,0000*5A,41.887599333333334,-87.65960316666667,147.60000000000002
2024-07-29 15:10:37,$GNGGA,201037,4153.25599,N,8739.57718,W,5,12,1.21,181.6,M,-33.8,M,10,0000*6E,41.88759983333333,-87.65961966666667,147.8
2024-07-29 15:10:38,$GNGGA,201038,4153.25597,N,8739.57823,W,5,12,1.21,181.6,M,-33.8,M,11,0000*69,41.8875995,-87.65963716666667,147.8
2024-07-29 15:10:39,$GNGGA,201039,4153.25594,N,8739.57925,W,5,12,1.21,181.5,M,-33.8,M,12,0000*6C,41.887599,-87.65965416666667,147.7
2024-07-29 15:10:40,$GNGGA,201040,4153.2559,N,8739.58025,W,5,12,1.12,181.5,M,-33.8,M,8,0000*5B,41.88759833333334,-87.65967083333334,147.7
2024-07-29 15:10:41,$GNGGA,201041,4153.25588,N,8739.58126,W,5,12,1.21,181.6,M,-33.8,M,4,0000*5E,41.887598,-87.65968766666667,147.8
2024-07-29 15:10:42,$GNGGA,201042,4153.25591,N,8739.58226,W,5,12,1.21,181.5,M,-33.8,M,5,0000*54,41.8875985,-87.65970433333334,147.7
2024-07-29 15:10:43,$GNGGA,201043,4153.25593,N,8739.5833,W,5,12,1.12,181.5,M,-33.8,M,6,0000*52,41.887598833333335,-87.65972166666667,147.7
2024-07-29 15:10:45,$GNGGA,201045,4153.25587,N,8739.58539,W,5,12,1.12,181.5,M,-33.8,M,8,0000*50,41.88759783333333,-87.6597565,147.7
2024-07-29 15:10:46,$GNGGA,201046,4153.25587,N,8739.58644,W,5,12,1.21,181.5,M,-33.8,M,9,0000*5B,41.88759783333333,-87.659774,147.7
2024-07-29 15:10:47,$GNGGA,201047,4153.25583,N,8739.5875,W,5,12,1.21,181.5,M,-33.8,M,10,0000*62,41.887597166666666,-87.65979166666666,147.7
2024-07-29 15:10:48,$GNGGA,201048,4153.25584,N,8739.58854,W,5,12,1.21,181.5,M,-33.8,M,11,0000*60,41.88759733333333,-87.659809,147.7
2024-07-29 15:10:49,$GNGGA,201049,4153.25583,N,8739.58957,W,5,12,1.24,181.5,M,-33.8,M,12,0000*62,41.887597166666666,-87.65982616666666,147.7
2024-07-29 15:10:50,$GNGGA,201050,4153.25582,N,8739.59063,W,5,12,1.24,181.5,M,-33.8,M,13,0000*65,41.887597,-87.65984383333333,147.7
2024-07-29 15:10:51,$GNGGA,201051,4153.2558,N,8739.59166,W,5,12,1.24,181.4,M,-33.8,M,14,0000*64,41.88759666666667,-87.659861,147.60000000000002
2024-07-29 15:10:52,$GNGGA,201052,4153.25582,N,8739.59271,W,5,12,1.15,181.4,M,-33.8,M,15,0000*63,41.887597,-87.6598785,147.60000000000002
2024-07-29 15:10:54,$GNGGA,201054,4153.25593,N,8739.59485,W,2,12,1.96,181.3,M,-33.8,M,17,0000*61,41.887598833333335,-87.65991416666667,147.5
2024-07-29 15:10:56,$GNGGA,201056,4153.25621,N,8739.59688,W,2,12,1.62,181.2,M,-33.8,M,19,0000*62,41.8876035,-87.659948,147.39999999999998
2024-07-29 15:10:57,$GNGGA,201057,4153.25602,N,8739.59761,W,5,12,1.62,181.6,M,-33.8,M,20,0000*6D,41.88760033333333,-87.65996016666666,147.8
2024-07-29 15:10:58,$GNGGA,201058,4153.25594,N,8739.59855,W,5,12,1.62,181.6,M,-33.8,M,21,0000*67,41.887599,-87.65997583333333,147.8
2024-07-29 15:10:59,$GNGGA,201059,4153.25591,N,8739.59955,W,5,12,1.59,181.7,M,-33.8,M,22,0000*68,41.8875985,-87.6599925,147.89999999999998
2024-07-29 15:11:00,$GNGGA,201100,4153.25587,N,8739.60056,W,5,12,1.33,181.8,M,-33.8,M,13,0000*63,41.88759783333333,-87.66000933333333,148.0
2024-07-29 15:11:01,$GNGGA,201101,4153.25582,N,8739.60157,W,5,12,1.59,181.9,M,-33.8,M,4,0000*5C,41.887597,-87.66002616666667,148.10000000000002
2024-07-29 15:11:02,$GNGGA,201102,4153.25577,N,8739.60256,W,5,12,1.59,182,M,-33.8,M,5,0000*5C,41.88759616666667,-87.66004266666667,148.2
2024-07-29 15:11:03,$GNGGA,201103,4153.25568,N,8739.60357,W,5,12,1.59,182,M,-33.8,M,6,0000*50,41.887594666666665,-87.6600595,148.2
2024-07-29 15:11:04,$GNGGA,201104,4153.25562,N,8739.60459,W,5,12,1.24,182,M,-33.8,M,7,0000*5F,41.88759366666667,-87.6600765,148.2
2024-07-29 15:11:05,$GNGGA,201105,4153.25557,N,8739.6056,W,5,12,1.24,182.1,M,-33.8,M,8,0000*5D,41.887592833333336,-87.66009333333334,148.3
2024-07-29 15:11:06,$GNGGA,201106,4153.25547,N,8739.60662,W,5,12,1.24,181.9,M,-33.8,M,9,0000*54,41.88759116666667,-87.66011033333334,148.10000000000002
2024-07-29 15:11:07,$GNGGA,201107,4153.25545,N,8739.60762,W,5,12,1.28,181.9,M,-33.8,M,10,0000*62,41.887590833333334,-87.660127,148.10000000000002
2024-07-29 15:11:08,$GNGGA,201108,4153.25542,N,8739.60859,W,5,12,1.28,181.9,M,-33.8,M,11,0000*6C,41.887590333333335,-87.66014316666667,148.10000000000002
2024-07-29 15:11:09,$GNGGA,201109,4153.25538,N,8739.60957,W,5,12,1.28,181.9,M,-33.8,M,12,0000*6C,41.88758966666666,-87.6601595,148.10000000000002
2024-07-29 15:11:10,$GNGGA,201110,4153.25532,N,8739.61058,W,5,12,1.28,181.9,M,-33.8,M,13,0000*68,41.887588666666666,-87.66017633333334,148.10000000000002
2024-07-29 15:11:12,$GNGGA,201112,4153.25524,N,8739.61259,W,5,12,1.24,182,M,-33.8,M,5,0000*5F,41.887587333333336,-87.66020983333334,148.2
2024-07-29 15:11:13,$GNGGA,201113,4153.25525,N,8739.6136,W,5,12,1.24,182,M,-33.8,M,6,0000*57,41.8875875,-87.66022666666667,148.2
2024-07-29 15:11:14,$GNGGA,201114,4153.25524,N,8739.61459,W,5,12,1.24,181.9,M,-33.8,M,7,0000*57,41.887587333333336,-87.66024316666666,148.10000000000002
2024-07-29 15:11:15,$GNGGA,201115,4153.25523,N,8739.61557,W,5,12,1.24,181.9,M,-33.8,M,8,0000*51,41.88758716666667,-87.6602595,148.10000000000002
2024-07-29 15:11:16,$GNGGA,201116,4153.25523,N,8739.61654,W,5,12,1.24,181.9,M,-33.8,M,9,0000*53,41.88758716666667,-87.66027566666666,148.10000000000002
2024-07-29 15:11:17,$GNGGA,201117,4153.25523,N,8739.61755,W,5,12,1.24,181.9,M,-33.8,M,10,0000*6A,41.88758716666667,-87.6602925,148.10000000000002
2024-07-29 15:11:18,$GNGGA,201118,4153.25519,N,8739.61853,W,5,12,1.53,181.9,M,-33.8,M,11,0000*64,41.8875865,-87.66030883333333,148.10000000000002
2024-07-29 15:11:19,$GNGGA,201119,4153.25521,N,8739.61949,W,5,12,1.53,181.9,M,-33.8,M,12,0000*67,41.88758683333333,-87.66032483333333,148.10000000000002
2024-07-29 15:11:20,$GNGGA,201120,4153.25523,N,8739.62048,W,5,12,1.53,181.9,M,-33.8,M,13,0000*65,41.88758716666667,-87.66034133333334,148.10000000000002
2024-07-29 15:11:21,$GNGGA,201121,4153.25525,N,8739.62148,W,5,12,1.53,181.8,M,-33.8,M,4,0000*54,41.8875875,-87.660358,148.0
2024-07-29 15:11:22,$GNGGA,201122,4153.25523,N,8739.62244,W,5,12,1.51,181.9,M,-33.8,M,5,0000*5C,41.88758716666667,-87.660374,148.10000000000002
2024-07-29 15:11:23,$GNGGA,201123,4153.25516,N,8739.62335,W,2,12,1.51,181.9,M,-33.8,M,6,0000*58,41.887586,-87.66038916666666,148.10000000000002
2024-07-29 15:11:24,$GNGGA,201124,4153.25511,N,8739.62436,W,5,12,1.51,182,M,-33.8,M,7,0000*50,41.88758516666667,-87.660406,148.2
2024-07-29 15:11:25,$GNGGA,201125,4153.25504,N,8739.62537,W,2,12,1.51,182.3,M,-33.8,M,8,0000*5E,41.887584,-87.66042283333333,148.5
2024-07-29 15:11:26,$GNGGA,201126,4153.25501,N,8739.62634,W,5,12,1.51,182.4,M,-33.8,M,9,0000*59,41.8875835,-87.660439,148.60000000000002
2024-07-29 15:11:27,$GNGGA,201127,4153.25502,N,8739.62723,W,5,12,1.51,182.4,M,-33.8,M,10,0000*64,41.887583666666664,-87.66045383333334,148.60000000000002
2024-07-29 15:11:28,$GNGGA,201128,4153.25504,N,8739.62814,W,5,12,1.21,182.3,M,-33.8,M,11,0000*67,41.887584,-87.660469,148.5
2024-07-29 15:11:30,$GNGGA,201130,4153.255,N,8739.62999,W,5,12,1.52,182.2,M,-33.8,M,3,0000*58,41.88758333333333,-87.66049983333333,148.39999999999998
2024-07-29 15:11:31,$GNGGA,201131,4153.25501,N,8739.63092,W,5,12,1.52,182.1,M,-33.8,M,4,0000*5F,41.8875835,-87.66051533333334,148.3
2024-07-29 15:11:32,$GNGGA,201132,4153.25504,N,8739.63186,W,5,12,1.52,182.2,M,-33.8,M,5,0000*5F,41.887584,-87.660531,148.39999999999998
2024-07-29 15:11:33,$GNGGA,201133,4153.25506,N,8739.63283,W,5,12,1.3,182.2,M,-33.8,M,6,0000*5D,41.887584333333336,-87.66054716666666,148.39999999999998
2024-07-29 15:11:34,$GNGGA,201134,4153.25506,N,8739.6338,W,5,12,1.52,182.1,M,-33.8,M,7,0000*5E,41.887584333333336,-87.66056333333333,148.3
2024-07-29 15:11:35,$GNGGA,201135,4153.25503,N,8739.63475,W,5,12,1.52,182.1,M,-33.8,M,8,0000*58,41.88758383333333,-87.66057916666666,148.3
2024-07-29 15:11:36,$GNGGA,201136,4153.255,N,8739.63569,W,5,12,1.13,182.1,M,-33.8,M,9,0000*50,41.88758333333333,-87.66059483333333,148.3
2024-07-29 15:11:38,$GNGGA,201138,4153.25503,N,8739.63761,W,5,12,1.13,182.1,M,-33.8,M,11,0000*6E,41.88758383333333,-87.66062683333334,148.3
2024-07-29 15:11:39,$GNGGA,201139,4153.25503,N,8739.63859,W,2,12,1.13,182.2,M,-33.8,M,12,0000*6C,41.88758383333333,-87.66064316666667,148.39999999999998
2024-07-29 15:11:40,$GNGGA,201140,4153.25505,N,8739.63962,W,2,12,1.13,182.7,M,-33.8,M,8,0000*53,41.88758416666667,-87.66066033333334,148.89999999999998
2024-07-29 15:11:41,$GNGGA,201141,4153.25493,N,8739.64061,W,2,12,1.13,182.8,M,-33.8,M,9,0000*5F,41.88758216666667,-87.66067683333333,149.0
2024-07-29 15:11:42,$GNGGA,201142,4153.25462,N,8739.64151,W,5,12,1.13,182.7,M,-33.8,M,5,0000*54,41.887577,-87.66069183333333,148.89999999999998
2024-07-29 15:11:43,$GNGGA,201143,4153.25402,N,8739.64215,W,5,12,1.13,182.8,M,-33.8,M,6,0000*5C,41.887567,-87.6607025,149.0
2024-07-29 15:11:44,$GNGGA,201144,4153.25334,N,8739.64253,W,5,12,1.13,182.8,M,-33.8,M,7,0000*5A,41.887555666666664,-87.66070883333333,149.0
2024-07-29 15:11:45,$GNGGA,201145,4153.25277,N,8739.643,W,5,12,1.13,183.3,M,-33.8,M,8,0000*5F,41.88754616666667,-87.66071666666667,149.5
2024-07-29 15:11:47,$GNGGA,201147,4153.25107,N,8739.64327,W,5,12,0.87,182.8,M,-33.8,M,10,0000*63,41.887517833333334,-87.66072116666666,149.0
2024-07-29 15:11:48,$GNGGA,201148,4153.2503,N,8739.64352,W,5,12,0.87,182.8,M,-33.8,M,11,0000*6A,41.887505,-87.66072533333333,149.0
2024-07-29 15:11:49,$GNGGA,201149,4153.24955,N,8739.64355,W,5,12,0.87,182.9,M,-33.8,M,12,0000*65,41.8874925,-87.66072583333333,149.10000000000002
2024-07-29 15:11:50,$GNGGA,201150,4153.24879,N,8739.64349,W,5,12,1.17,183,M,-33.8,M,8,0000*54,41.88747983333333,-87.66072483333333,149.2
2024-07-29 15:11:51,$GNGGA,201151,4153.24804,N,8739.64346,W,5,12,1.17,182.9,M,-33.8,M,9,0000*59,41.88746733333333,-87.66072433333333,149.10000000000002
2024-07-29 15:11:52,$GNGGA,201152,4153.24723,N,8739.64348,W,5,12,1.17,182.8,M,-33.8,M,10,0000*67,41.88745383333333,-87.66072466666667,149.0
2024-07-29 15:11:53,$GNGGA,201153,4153.24643,N,8739.64348,W,5,12,1.42,182.7,M,-33.8,M,11,0000*6F,41.8874405,-87.66072466666667,148.89999999999998
2024-07-29 15:11:54,$GNGGA,201154,4153.24562,N,8739.64353,W,5,12,1.42,182.7,M,-33.8,M,12,0000*61,41.887427,-87.6607255,148.89999999999998
2024-07-29 15:11:55,$GNGGA,201155,4153.24483,N,8739.64359,W,5,12,1.42,182.6,M,-33.8,M,13,0000*64,41.88741383333333,-87.6607265,148.8
2024-07-29 15:11:56,$GNGGA,201156,4153.24409,N,8739.6436,W,5,12,1.42,182.6,M,-33.8,M,14,0000*68,41.8874015,-87.66072666666666,148.8
2024-07-29 15:11:57,$GNGGA,201157,4153.24337,N,8739.64358,W,5,12,1.42,182.6,M,-33.8,M,15,0000*69,41.8873895,-87.66072633333333,148.8
2024-07-29 15:11:58,$GNGGA,201158,4153.24262,N,8739.64354,W,5,12,1.42,182.6,M,-33.8,M,16,0000*68,41.887377,-87.66072566666666,148.8
2024-07-29 15:11:59,$GNGGA,201159,4153.24185,N,8739.64351,W,5,12,1.42,182.5,M,-33.8,M,17,0000*64,41.887364166666664,-87.66072516666667,148.7
2024-07-29 15:12:01,$GNGGA,201201,4153.24027,N,8739.64347,W,5,12,1.42,182.6,M,-33.8,M,9,0000*58,41.88733783333333,-87.6607245,148.8
2024-07-29 15:12:02,$GNGGA,201202,4153.23948,N,8739.64347,W,5,12,1.42,182.7,M,-33.8,M,10,0000*65,41.887324666666665,-87.6607245,148.89999999999998
2024-07-29 15:12:03,$GNGGA,201203,4153.2387,N,8739.64345,W,5,12,1.42,182.6,M,-33.8,M,11,0000*6C,41.88731166666667,-87.66072416666667,148.8
2024-07-29 15:12:04,$GNGGA,201204,4153.23793,N,8739.64344,W,5,12,1.16,182.6,M,-33.8,M,12,0000*6A,41.88729883333333,-87.660724,148.8
2024-07-29 15:12:05,$GNGGA,201205,4153.23721,N,8739.64338,W,5,12,1.16,182.7,M,-33.8,M,13,0000*69,41.887286833333334,-87.660723,148.89999999999998
2024-07-29 15:12:06,$GNGGA,201206,4153.23648,N,8739.64333,W,5,12,1.16,182.7,M,-33.8,M,14,0000*68,41.88727466666667,-87.66072216666667,148.89999999999998
2024-07-29 15:12:07,$GNGGA,201207,4153.23573,N,8739.64332,W,5,12,1.16,182.7,M,-33.8,M,15,0000*62,41.887262166666666,-87.660722,148.89999999999998
2024-07-29 15:12:08,$GNGGA,201208,4153.23497,N,8739.64328,W,5,12,1.16,182.7,M,-33.8,M,16,0000*6E,41.8872495,-87.66072133333333,148.89999999999998
2024-07-29 15:12:09,$GNGGA,201209,4153.2342,N,8739.6433,W,5,12,1.16,182.7,M,-33.8,M,17,0000*6B,41.88723666666667,-87.66072166666666,148.89999999999998
2024-07-29 15:12:10,$GNGGA,201210,4153.23364,N,8739.64301,W,5,12,1.52,182.3,M,-33.8,M,8,0000*5C,41.887227333333335,-87.66071683333334,148.5
2024-07-29 15:12:11,$GNGGA,201211,4153.23306,N,8739.64287,W,2,12,1.2,182.1,M,-33.8,M,4,0000*5A,41.887217666666665,-87.6607145,148.3
2024-07-29 15:12:12,$GNGGA,201212,4153.23231,N,8739.64297,W,5,12,1.23,182,M,-33.8,M,5,0000*59,41.88720516666667,-87.66071616666666,148.2
2024-07-29 15:12:14,$GNGGA,201214,4153.23078,N,8739.64294,W,5,12,1.05,182.1,M,-33.8,M,7,0000*54,41.88717966666667,-87.66071566666666,148.3
2024-07-29 15:12:15,$GNGGA,201215,4153.23002,N,8739.64296,W,5,12,1.05,182.1,M,-33.8,M,8,0000*55,41.887167,-87.660716,148.3
2024-07-29 15:12:16,$GNGGA,201216,4153.22927,N,8739.643,W,5,12,1.05,182.2,M,-33.8,M,9,0000*55,41.8871545,-87.66071666666667,148.39999999999998
2024-07-29 15:12:17,$GNGGA,201217,4153.22851,N,8739.64305,W,5,12,1.23,182.1,M,-33.8,M,10,0000*6E,41.88714183333333,-87.6607175,148.3
2024-07-29 15:12:18,$GNGGA,201218,4153.22782,N,8739.6431,W,5,12,1.09,181.9,M,-33.8,M,11,0000*66,41.88713033333333,-87.66071833333334,148.10000000000002
2024-07-29 15:12:19,$GNGGA,201219,4153.22714,N,8739.64313,W,5,12,1.09,182,M,-33.8,M,12,0000*62,41.887119,-87.66071883333333,148.2
2024-07-29 15:12:20,$GNGGA,201220,4153.22645,N,8739.64306,W,5,12,1.09,182,M,-33.8,M,3,0000*59,41.8871075,-87.66071766666667,148.2
2024-07-29 15:12:21,$GNGGA,201221,4153.22575,N,8739.64295,W,5,12,1.09,182,M,-33.8,M,4,0000*54,41.88709583333333,-87.66071583333333,148.2
2024-07-29 15:12:22,$GNGGA,201222,4153.22499,N,8739.64291,W,5,12,1.23,182.2,M,-33.8,M,5,0000*5B,41.88708316666666,-87.66071516666666,148.39999999999998
2024-07-29 15:12:23,$GNGGA,201223,4153.2241,N,8739.64329,W,4,12,1.23,181.6,M,-33.8,M,6,0000*5C,41.88706833333333,-87.6607215,147.8
2024-07-29 15:12:24,$GNGGA,201224,4153.22341,N,8739.64327,W,4,12,1.23,181.5,M,-33.8,M,7,0000*54,41.88705683333333,-87.66072116666666,147.7
2024-07-29 15:12:25,$GNGGA,201225,4153.22267,N,8739.64322,W,4,12,1.23,181.6,M,-33.8,M,8,0000*59,41.8870445,-87.66072033333333,147.8
2024-07-29 15:12:26,$GNGGA,201226,4153.22193,N,8739.6433,W,4,12,1.23,181.7,M,-33.8,M,9,0000*51,41.887032166666664,-87.66072166666666,147.89999999999998
2024-07-29 15:12:27,$GNGGA,201227,4153.2212,N,8739.64333,W,4,12,1.23,181.6,M,-33.8,M,10,0000*62,41.88702,-87.66072216666667,147.8
2024-07-29 15:12:28,$GNGGA,201228,4153.22046,N,8739.64342,W,4,12,1.05,181.7,M,-33.8,M,11,0000*6E,41.88700766666667,-87.66072366666667,147.89999999999998
2024-07-29 15:12:29,$GNGGA,201229,4153.21975,N,8739.64343,W,5,12,1.05,181.6,M,-33.8,M,12,0000*67,41.88699583333333,-87.66072383333334,147.8
2024-07-29 15:12:30,$GNGGA,201230,4153.21906,N,8739.64342,W,5,12,1.05,181.6,M,-33.8,M,13,0000*6B,41.88698433333333,-87.66072366666667,147.8
2024-07-29 15:12:31,$GNGGA,201231,4153.21836,N,8739.64343,W,5,12,1.05,181.6,M,-33.8,M,14,0000*6E,41.886972666666665,-87.66072383333334,147.8
2024-07-29 15:12:32,$GNGGA,201232,4153.21764,N,8739.64341,W,5,12,1.05,181.6,M,-33.8,M,15,0000*66,41.88696066666667,-87.6607235,147.8
2024-07-29 15:12:34,$GNGGA,201234,4153.21624,N,8739.6433,W,5,12,1.23,181.5,M,-33.8,M,17,0000*66,41.886937333333336,-87.66072166666666,147.7
2024-07-29 15:12:35,$GNGGA,201235,4153.21556,N,8739.64328,W,5,12,1.23,181.4,M,-33.8,M,18,0000*66,41.886926,-87.66072133333333,147.60000000000002
2024-07-29 15:12:36,$GNGGA,201236,4153.21483,N,8739.64332,W,5,12,1.07,181.4,M,-33.8,M,19,0000*60,41.88691383333333,-87.660722,147.60000000000002
2024-07-29 15:12:37,$GNGGA,201237,4153.21411,N,8739.64331,W,5,12,1.07,181.4,M,-33.8,M,20,0000*63,41.88690183333333,-87.66072183333333,147.60000000000002
2024-07-29 15:12:39,$GNGGA,201239,4153.21273,N,8739.64326,W,5,12,1.07,181.4,M,-33.8,M,22,0000*6B,41.886878833333334,-87.660721,147.60000000000002
2024-07-29 15:12:40,$GNGGA,201240,4153.21202,N,8739.64326,W,5,12,1.44,181.4,M,-33.8,M,3,0000*57,41.886867,-87.660721,147.60000000000002
2024-07-29 15:12:41,$GNGGA,201241,4153.21133,N,8739.64324,W,5,12,1.44,181.4,M,-33.8,M,4,0000*52,41.8868555,-87.66072066666666,147.60000000000002
2024-07-29 15:12:42,$GNGGA,201242,4153.21067,N,8739.64318,W,5,12,1.27,181.3,M,-33.8,M,5,0000*5D,41.8868445,-87.66071966666667,147.5
2024-07-29 15:12:43,$GNGGA,201243,4153.20998,N,8739.64312,W,5,12,1.23,181.3,M,-33.8,M,6,0000*59,41.886833,-87.66071866666667,147.5
2024-07-29 15:12:44,$GNGGA,201244,4153.20924,N,8739.64309,W,4,12,1.05,181.7,M,-33.8,M,7,0000*53,41.886820666666665,-87.66071816666667,147.89999999999998
2024-07-29 15:12:45,$GNGGA,201245,4153.20856,N,8739.64304,W,4,12,1.07,181.6,M,-33.8,M,8,0000*57,41.88680933333333,-87.66071733333334,147.8
2024-07-29 15:12:46,$GNGGA,201246,4153.20789,N,8739.64298,W,4,12,1.07,181.6,M,-33.8,M,9,0000*5C,41.886798166666665,-87.66071633333334,147.8
2024-07-29 15:12:47,$GNGGA,201247,4153.20728,N,8739.64299,W,4,12,1.23,181.6,M,-33.8,M,10,0000*69,41.886788,-87.6607165,147.8
2024-07-29 15:12:48,$GNGGA,201248,4153.20667,N,8739.64297,W,4,12,1.39,181.6,M,-33.8,M,11,0000*68,41.88677783333333,-87.66071616666666,147.8
2024-07-29 15:12:49,$GNGGA,201249,4153.20603,N,8739.64287,W,4,12,1.44,181.5,M,-33.8,M,12,0000*60,41.886767166666665,-87.6607145,147.7
2024-07-29 15:12:51,$GNGGA,201251,4153.20474,N,8739.64226,W,4,12,0.89,181.4,M,-33.8,M,14,0000*67,41.88674566666667,-87.66070433333333,147.60000000000002
2024-07-29 15:12:52,$GNGGA,201252,4153.20423,N,8739.6416,W,4,12,1.15,181.5,M,-33.8,M,15,0000*63,41.88673716666667,-87.66069333333333,147.7
2024-07-29 15:12:53,$GNGGA,201253,4153.20395,N,8739.64052,W,2,12,1.09,180.7,M,-33.8,M,16,0000*63,41.8867325,-87.66067533333333,146.89999999999998
2024-07-29 15:12:54,$GNGGA,201254,4153.20365,N,8739.64,W,5,12,1.15,181,M,-33.8,M,17,0000*61,41.8867275,-87.66066666666667,147.2
2024-07-29 15:12:55,$GNGGA,201255,4153.20342,N,8739.6392,W,5,12,1.09,181.5,M,-33.8,M,18,0000*6E,41.88672366666667,-87.66065333333333,147.7
2024-07-29 15:12:56,$GNGGA,201256,4153.20318,N,8739.63876,W,5,12,1.09,181.7,M,-33.8,M,19,0000*63,41.886719666666664,-87.660646,147.89999999999998
2024-07-29 15:12:57,$GNGGA,201257,4153.20306,N,8739.63878,W,4,12,1.15,181.7,M,-33.8,M,20,0000*65,41.88671766666667,-87.66064633333333,147.89999999999998
2024-07-29 15:12:58,$GNGGA,201258,4153.20294,N,8739.63908,W,4,12,0.97,181.6,M,-33.8,M,21,0000*6D,41.88671566666667,-87.66065133333333,147.8
2024-07-29 15:13:01,$GNGGA,201301,4153.20275,N,8739.64028,W,4,12,0.92,181.5,M,-33.8,M,4,0000*52,41.8867125,-87.66067133333334,147.7
2024-07-29 15:13:02,$GNGGA,201302,4153.20271,N,8739.64074,W,4,12,0.99,181.6,M,-33.8,M,5,0000*55,41.88671183333334,-87.660679,147.8
2024-07-29 15:13:04,$GNGGA,201304,4153.20256,N,8739.64135,W,4,12,0.92,181.6,M,-33.8,M,7,0000*5B,41.886709333333336,-87.66068916666667,147.8
2024-07-29 15:13:06,$GNGGA,201306,4153.20249,N,8739.64109,W,4,12,0.83,181.7,M,-33.8,M,9,0000*57,41.886708166666665,-87.66068483333333,147.89999999999998
2024-07-29 15:13:07,$GNGGA,201307,4153.20254,N,8739.64063,W,4,12,0.97,181.5,M,-33.8,M,10,0000*68,41.886709,-87.66067716666667,147.7
2024-07-29 15:13:08,$GNGGA,201308,4153.20258,N,8739.63995,W,4,12,1.08,181.4,M,-33.8,M,11,0000*6B,41.88670966666667,-87.66066583333334,147.60000000000002
2024-07-29 15:13:09,$GNGGA,201309,4153.20256,N,8739.63904,W,4,12,1.08,181.3,M,-33.8,M,12,0000*68,41.886709333333336,-87.66065066666667,147.5
2024-07-29 15:13:11,$GNGGA,201311,4153.20265,N,8739.6373,W,4,12,1,181.5,M,-33.8,M,14,0000*60,41.88671083333333,-87.66062166666667,147.7
2024-07-29 15:13:12,$GNGGA,201312,4153.20269,N,8739.63661,W,4,12,1,181.6,M,-33.8,M,15,0000*68,41.8867115,-87.66061016666667,147.8
2024-07-29 15:13:13,$GNGGA,201313,4153.2027,N,8739.63588,W,4,12,1,181.5,M,-33.8,M,16,0000*65,41.88671166666666,-87.660598,147.7
2024-07-29 15:13:14,$GNGGA,201314,4153.20273,N,8739.63509,W,4,12,1.03,181.5,M,-33.8,M,17,0000*6A,41.88671216666667,-87.66058483333333,147.7
2024-07-29 15:13:15,$GNGGA,201315,4153.20276,N,8739.63442,W,4,12,1.03,181.6,M,-33.8,M,18,0000*6C,41.88671266666667,-87.66057366666666,147.8
2024-07-29 15:13:16,$GNGGA,201316,4153.20287,N,8739.63355,W,4,12,1.03,181.5,M,-33.8,M,19,0000*62,41.8867145,-87.66055916666667,147.7
2024-07-29 15:13:17,$GNGGA,201317,4153.203,N,8739.63268,W,4,12,1.14,181.3,M,-33.8,M,20,0000*68,41.886716666666665,-87.66054466666667,147.5
2024-07-29 15:13:18,$GNGGA,201318,4153.20304,N,8739.63179,W,4,12,1.14,181.4,M,-33.8,M,21,0000*66,41.88671733333334,-87.66052983333333,147.60000000000002
2024-07-29 15:13:19,$GNGGA,201319,4153.20307,N,8739.63093,W,4,12,1.14,181.4,M,-33.8,M,22,0000*62,41.886717833333336,-87.6605155,147.60000000000002
2024-07-29 15:13:20,$GNGGA,201320,4153.20314,N,8739.63012,W,4,12,1.14,181.4,M,-33.8,M,3,0000*50,41.886719,-87.660502,147.60000000000002
2024-07-29 15:13:21,$GNGGA,201321,4153.20316,N,8739.62927,W,4,12,1.03,181.6,M,-33.8,M,4,0000*5E,41.88671933333333,-87.66048783333333,147.8
2024-07-29 15:13:22,$GNGGA,201322,4153.20309,N,8739.6284,W,4,12,1.03,181.6,M,-33.8,M,5,0000*52,41.88671816666667,-87.66047333333333,147.8
2024-07-29 15:13:23,$GNGGA,201323,4153.20306,N,8739.62751,W,4,12,1.07,181.7,M,-33.8,M,6,0000*55,41.88671766666667,-87.6604585,147.89999999999998
2024-07-29 15:13:25,$GNGGA,201325,4153.20302,N,8739.62565,W,4,12,1.1,181.7,M,-33.8,M,8,0000*5A,41.886717,-87.6604275,147.89999999999998
2024-07-29 15:13:26,$GNGGA,201326,4153.20301,N,8739.62474,W,4,12,1.1,181.7,M,-33.8,M,9,0000*5A,41.88671683333333,-87.66041233333334,147.89999999999998
2024-07-29 15:13:27,$GNGGA,201327,4153.203,N,8739.62378,W,4,12,1.1,181.6,M,-33.8,M,10,0000*68,41.886716666666665,-87.66039633333334,147.8
2024-07-29 15:13:28,$GNGGA,201328,4153.20301,N,8739.62286,W,4,12,1.1,181.7,M,-33.8,M,11,0000*66,41.88671683333333,-87.660381,147.89999999999998
2024-07-29 15:13:29,$GNGGA,201329,4153.20301,N,8739.62189,W,4,12,1.07,181.6,M,-33.8,M,12,0000*6F,41.88671683333333,-87.66036483333333,147.8
2024-07-29 15:13:30,$GNGGA,201330,4153.20305,N,8739.62091,W,4,12,1.1,181.5,M,-33.8,M,3,0000*5E,41.8867175,-87.6603485,147.7
2024-07-29 15:13:31,$GNGGA,201331,4153.20308,N,8739.61996,W,4,12,1.05,181.6,M,-33.8,M,4,0000*5F,41.886718,-87.66033266666666,147.8
2024-07-29 15:13:32,$GNGGA,201332,4153.20312,N,8739.61901,W,4,12,1.1,181.6,M,-33.8,M,5,0000*5C,41.88671866666667,-87.66031683333334,147.8
2024-07-29 15:13:33,$GNGGA,201333,4153.20316,N,8739.61804,W,4,12,1.1,181.6,M,-33.8,M,6,0000*5E,41.88671933333333,-87.66030066666667,147.8
2024-07-29 15:13:34,$GNGGA,201334,4153.2032,N,8739.6171,W,4,12,1.1,181.6,M,-33.8,M,7,0000*57,41.88672,-87.660285,147.8
2024-07-29 15:13:35,$GNGGA,201335,4153.20325,N,8739.61613,W,4,12,1.07,181.6,M,-33.8,M,8,0000*58,41.886720833333335,-87.66026883333333,147.8
2024-07-29 15:13:36,$GNGGA,201336,4153.20319,N,8739.61499,W,5,12,1.07,182.1,M,-33.8,M,9,0000*50,41.88671983333333,-87.66024983333334,148.3
2024-07-29 15:13:37,$GNGGA,201337,4153.20335,N,8739.61429,W,5,12,1.07,181.8,M,-33.8,M,10,0000*66,41.8867225,-87.66023816666667,148.0
2024-07-29 15:13:39,$GNGGA,201339,4153.20333,N,8739.61239,W,5,12,1.1,181.5,M,-33.8,M,12,0000*60,41.886722166666665,-87.6602065,147.7
2024-07-29 15:13:40,$GNGGA,201340,4153.20325,N,8739.61144,W,5,12,1.26,182.1,M,-33.8,M,3,0000*52,41.886720833333335,-87.66019066666667,148.3
2024-07-29 15:13:41,$GNGGA,201341,4153.20316,N,8739.61045,W,5,12,1.26,181.6,M,-33.8,M,4,0000*50,41.88671933333333,-87.66017416666666,147.8
2024-07-29 15:13:42,$GNGGA,201342,4153.20313,N,8739.60949,W,4,12,1.1,181.7,M,-33.8,M,5,0000*56,41.88671883333333,-87.66015816666666,147.89999999999998
2024-07-29 15:13:43,$GNGGA,201343,4153.20307,N,8739.60852,W,4,12,1.1,181.5,M,-33.8,M,6,0000*58,41.886717833333336,-87.660142,147.7
2024-07-29 15:13:44,$GNGGA,201344,4153.20301,N,8739.60753,W,4,12,1.07,181.4,M,-33.8,M,7,0000*51,41.88671683333333,-87.6601255,147.60000000000002
2024-07-29 15:13:45,$GNGGA,201345,4153.2029,N,8739.60656,W,4,12,1.26,181.7,M,-33.8,M,8,0000*52,41.886715,-87.66010933333334,147.89999999999998
2024-07-29 15:13:46,$GNGGA,201346,4153.2028,N,8739.60557,W,4,12,1.1,181.7,M,-33.8,M,9,0000*56,41.88671333333333,-87.66009283333334,147.89999999999998
2024-07-29 15:13:47,$GNGGA,201347,4153.20278,N,8739.60458,W,4,12,1.1,181.5,M,-33.8,M,10,0000*64,41.886713,-87.66007633333334,147.7
2024-07-29 15:13:48,$GNGGA,201348,4153.20272,N,8739.6036,W,5,12,1.26,181.7,M,-33.8,M,11,0000*6A,41.886712,-87.66006,147.89999999999998
2024-07-29 15:13:49,$GNGGA,201349,4153.2027,N,8739.60261,W,5,12,1.18,181.8,M,-33.8,M,12,0000*68,41.88671166666666,-87.6600435,148.0
2024-07-29 15:13:50,$GNGGA,201350,4153.20273,N,8739.60166,W,5,12,1.12,181.5,M,-33.8,M,13,0000*61,41.88671216666667,-87.66002766666666,147.7
2024-07-29 15:13:51,$GNGGA,201351,4153.20276,N,8739.60065,W,5,12,1.09,181.4,M,-33.8,M,14,0000*6B,41.88671266666667,-87.66001083333333,147.60000000000002
2024-07-29 15:13:52,$GNGGA,201352,4153.20282,N,8739.59967,W,5,12,1.09,181.3,M,-33.8,M,15,0000*64,41.886713666666665,-87.6599945,147.5
2024-07-29 15:13:53,$GNGGA,201353,4153.20287,N,8739.59871,W,5,12,1.09,181.4,M,-33.8,M,16,0000*62,41.8867145,-87.6599785,147.60000000000002
2024-07-29 15:13:55,$GNGGA,201355,4153.20305,N,8739.59677,W,5,12,1.09,181.6,M,-33.8,M,18,0000*6B,41.8867175,-87.65994616666667,147.8
2024-07-29 15:13:56,$GNGGA,201356,4153.20329,N,8739.59585,W,5,12,1.09,181.4,M,-33.8,M,19,0000*6B,41.8867215,-87.65993083333333,147.60000000000002
2024-07-29 15:13:57,$GNGGA,201357,4153.20337,N,8739.59472,W,2,12,1.09,181.8,M,-33.8,M,20,0000*6D,41.88672283333333,-87.659912,148.0
2024-07-29 15:13:58,$GNGGA,201358,4153.20345,N,8739.59361,W,2,12,1.09,181.4,M,-33.8,M,21,0000*6F,41.88672416666667,-87.6598935,147.60000000000002
2024-07-29 15:13:59,$GNGGA,201359,4153.20348,N,8739.59258,W,2,12,1.09,181.9,M,-33.8,M,22,0000*66,41.886724666666666,-87.65987633333333,148.10000000000002
2024-07-29 15:14:01,$GNGGA,201401,4153.20378,N,8739.59089,W,5,12,1.09,181.9,M,-33.8,M,4,0000*52,41.88672966666667,-87.65984816666666,148.10000000000002
2024-07-29 15:14:02,$GNGGA,201402,4153.20383,N,8739.58996,W,5,12,1.09,182,M,-33.8,M,5,0000*58,41.8867305,-87.65983266666667,148.2
2024-07-29 15:14:03,$GNGGA,201403,4153.2039,N,8739.58903,W,5,12,1.09,182,M,-33.8,M,6,0000*54,41.88673166666667,-87.65981716666667,148.2
2024-07-29 15:14:04,$GNGGA,201404,4153.20397,N,8739.58811,W,5,12,1.14,182,M,-33.8,M,7,0000*5B,41.88673283333333,-87.65980183333333,148.2
2024-07-29 15:14:05,$GNGGA,201405,4153.20408,N,8739.5872,W,5,12,1.09,182,M,-33.8,M,8,0000*55,41.88673466666667,-87.65978666666666,148.2
2024-07-29 15:14:08,$GNGGA,201408,4153.20421,N,8739.58437,W,5,12,1.09,182.2,M,-33.8,M,11,0000*6C,41.88673683333333,-87.6597395,148.39999999999998
2024-07-29 15:14:09,$GNGGA,201409,4153.20417,N,8739.58343,W,5,12,1.09,182.3,M,-33.8,M,12,0000*6E,41.886736166666665,-87.65972383333333,148.5
2024-07-29 15:14:10,$GNGGA,201410,4153.20418,N,8739.5825,W,5,12,1.09,182.2,M,-33.8,M,8,0000*50,41.88673633333333,-87.65970833333333,148.39999999999998
2024-07-29 15:14:11,$GNGGA,201411,4153.20422,N,8739.58156,W,5,12,1.09,182.2,M,-33.8,M,4,0000*51,41.886737,-87.65969266666667,148.39999999999998
2024-07-29 15:14:12,$GNGGA,201412,4153.20427,N,8739.58065,W,5,12,1.03,182.1,M,-33.8,M,5,0000*5E,41.886737833333335,-87.6596775,148.3
2024-07-29 15:14:13,$GNGGA,201413,4153.20429,N,8739.57972,W,5,12,1.09,182.1,M,-33.8,M,6,0000*58,41.88673816666667,-87.659662,148.3
2024-07-29 15:14:14,$GNGGA,201414,4153.20429,N,8739.57878,W,5,12,1.1,182.2,M,-33.8,M,7,0000*5E,41.88673816666667,-87.65964633333333,148.39999999999998
2024-07-29 15:14:16,$GNGGA,201416,4153.20429,N,8739.57697,W,5,12,1.09,182.3,M,-33.8,M,9,0000*54,41.88673816666667,-87.65961616666667,148.5
2024-07-29 15:14:17,$GNGGA,201417,4153.2043,N,8739.57606,W,5,12,1.1,182.3,M,-33.8,M,10,0000*65,41.886738333333334,-87.659601,148.5
2024-07-29 15:14:18,$GNGGA,201418,4153.20431,N,8739.57512,W,5,12,1.1,182.3,M,-33.8,M,11,0000*6C,41.8867385,-87.65958533333334,148.5
2024-07-29 15:14:19,$GNGGA,201419,4153.20427,N,8739.5742,W,5,12,1.1,182.2,M,-33.8,M,12,0000*68,41.886737833333335,-87.65957,148.39999999999998
2024-07-29 15:14:20,$GNGGA,201420,4153.20422,N,8739.57326,W,5,12,1.04,182.2,M,-33.8,M,13,0000*62,41.886737,-87.65955433333333,148.39999999999998
2024-07-29 15:14:21,$GNGGA,201421,4153.20419,N,8739.57232,W,5,12,1.05,182.2,M,-33.8,M,14,0000*69,41.8867365,-87.65953866666666,148.39999999999998
2024-07-29 15:14:22,$GNGGA,201422,4153.2042,N,8739.5714,W,5,12,1.12,182,M,-33.8,M,15,0000*63,41.886736666666664,-87.65952333333334,148.2
2024-07-29 15:14:23,$GNGGA,201423,4153.20423,N,8739.57047,W,5,12,0.84,181.9,M,-33.8,M,16,0000*60,41.88673716666667,-87.65950783333334,148.10000000000002
2024-07-29 15:14:24,$GNGGA,201424,4153.20422,N,8739.56952,W,5,12,0.84,181.9,M,-33.8,M,17,0000*6B,41.886737,-87.659492,148.10000000000002
2024-07-29 15:14:25,$GNGGA,201425,4153.20422,N,8739.56856,W,5,12,1.01,181.9,M,-33.8,M,18,0000*6C,41.886737,-87.659476,148.10000000000002
2024-07-29 15:14:26,$GNGGA,201426,4153.20425,N,8739.56762,W,5,12,1.01,181.9,M,-33.8,M,19,0000*61,41.8867375,-87.65946033333333,148.10000000000002
2024-07-29 15:14:27,$GNGGA,201427,4153.20427,N,8739.56669,W,5,12,1.01,181.9,M,-33.8,M,20,0000*62,41.886737833333335,-87.65944483333334,148.10000000000002
2024-07-29 15:14:28,$GNGGA,201428,4153.20429,N,8739.56576,W,5,12,1.06,181.8,M,-33.8,M,21,0000*69,41.88673816666667,-87.65942933333334,148.0
2024-07-29 15:14:29,$GNGGA,201429,4153.2043,N,8739.56488,W,5,12,1.06,181.7,M,-33.8,M,22,0000*6C,41.886738333333334,-87.65941466666666,147.89999999999998
2024-07-29 15:14:30,$GNGGA,201430,4153.2043,N,8739.56399,W,5,12,1.06,181.7,M,-33.8,M,13,0000*61,41.886738333333334,-87.65939983333334,147.89999999999998
2024-07-29 15:14:31,$GNGGA,201431,4153.20427,N,8739.56325,W,5,12,1.01,181.7,M,-33.8,M,14,0000*61,41.886737833333335,-87.6593875,147.89999999999998
2024-07-29 15:14:32,$GNGGA,201432,4153.20426,N,8739.5627,W,5,12,1.06,181.7,M,-33.8,M,15,0000*64,41.88673766666667,-87.65937833333334,147.89999999999998
2024-07-29 15:14:33,$GNGGA,201433,4153.20428,N,8739.56219,W,5,12,1.06,181.7,M,-33.8,M,16,0000*67,41.886738,-87.65936983333333,147.89999999999998
2024-07-29 15:14:34,$GNGGA,201434,4153.20419,N,8739.56167,W,5,12,1.06,181.7,M,-33.8,M,17,0000*69,41.8867365,-87.65936116666667,147.89999999999998
2024-07-29 15:14:35,$GNGGA,201435,4153.20407,N,8739.56107,W,5,12,1.04,181.7,M,-33.8,M,18,0000*6C,41.8867345,-87.65935116666667,147.89999999999998
2024-07-29 15:14:36,$GNGGA,201436,4153.20402,N,8739.56039,W,5,12,1.06,181.6,M,-33.8,M,19,0000*64,41.886733666666665,-87.65933983333333,147.8
2024-07-29 15:14:37,$GNGGA,201437,4153.20407,N,8739.5597,W,5,12,1.01,181.6,M,-33.8,M,20,0000*6A,41.8867345,-87.65932833333333,147.8
2024-07-29 15:14:38,$GNGGA,201438,4153.20416,N,8739.55898,W,5,12,1.06,181.7,M,-33.8,M,21,0000*65,41.886736,-87.65931633333334,147.89999999999998
2024-07-29 15:14:39,$GNGGA,201439,4153.20418,N,8739.55823,W,5,12,1.06,181.9,M,-33.8,M,22,0000*67,41.88673633333333,-87.65930383333334,148.10000000000002
2024-07-29 15:14:40,$GNGGA,201440,4153.20414,N,8739.55749,W,5,12,1.01,181.9,M,-33.8,M,28,0000*6B,41.88673566666667,-87.6592915,148.10000000000002
2024-07-29 15:14:41,$GNGGA,201441,4153.20408,N,8739.5568,W,5,12,1.06,181.9,M,-33.8,M,29,0000*65,41.88673466666667,-87.65928,148.10000000000002
2024-07-29 15:14:42,$GNGGA,201442,4153.20405,N,8739.55625,W,5,12,1.06,181.8,M,-33.8,M,30,0000*6D,41.88673416666666,-87.65927083333334,148.0
2024-07-29 15:14:43,$GNGGA,201443,4153.20399,N,8739.55555,W,5,12,1.06,181.7,M,-33.8,M,31,0000*64,41.886733166666666,-87.65925916666667,147.89999999999998
2024-07-29 15:14:44,$GNGGA,201444,4153.20397,N,8739.5546,W,5,12,1.06,181.5,M,-33.8,M,32,0000*6B,41.88673283333333,-87.65924333333334,147.7
2024-07-29 15:14:45,$GNGGA,201445,4153.204,N,8739.55367,W,5,12,0.88,181.5,M,-33.8,M,33,0000*65,41.88673333333333,-87.65922783333333,147.7
2024-07-29 15:14:46,$GNGGA,201446,4153.20409,N,8739.55277,W,5,12,0.91,181.6,M,-33.8,M,34,0000*63,41.886734833333335,-87.65921283333333,147.8
2024-07-29 15:14:47,$GNGGA,201447,4153.20416,N,8739.55188,W,5,12,1.12,181.7,M,-33.8,M,35,0000*65,41.886736,-87.659198,147.89999999999998
2024-07-29 15:14:48,$GNGGA,201448,4153.20425,N,8739.5511,W,5,12,1,181.7,M,-33.8,M,36,0000*6B,41.8867375,-87.659185,147.89999999999998
2024-07-29 15:14:49,$GNGGA,201449,4153.20433,N,8739.55041,W,5,12,0.84,181.8,M,-33.8,M,37,0000*6B,41.88673883333333,-87.6591735,148.0
2024-07-29 15:14:50,$GNGGA,201450,4153.20437,N,8739.54965,W,5,12,1.03,181.9,M,-33.8,M,38,0000*69,41.8867395,-87.65916083333333,148.10000000000002
2024-07-29 15:14:51,$GNGGA,201451,4153.20437,N,8739.54889,W,5,12,1.1,182,M,-33.8,M,4,0000*5C,41.8867395,-87.65914816666667,148.2
2024-07-29 15:14:52,$GNGGA,201452,4153.2044,N,8739.54813,W,5,12,1,181.9,M,-33.8,M,5,0000*56,41.88674,-87.6591355,148.10000000000002
2024-07-29 15:14:53,$GNGGA,201453,4153.20444,N,8739.54737,W,5,12,1,181.9,M,-33.8,M,6,0000*59,41.88674066666667,-87.65912283333333,148.10000000000002
2024-07-29 15:14:54,$GNGGA,201454,4153.20447,N,8739.54656,W,5,12,0.8,181.8,M,-33.8,M,7,0000*52,41.88674116666667,-87.65910933333333,148.0
2024-07-29 15:14:55,$GNGGA,201455,4153.2045,N,8739.54566,W,5,12,1.21,181.8,M,-33.8,M,8,0000*50,41.886741666666666,-87.65909433333333,148.0
2024-07-29 15:14:56,$GNGGA,201456,4153.20452,N,8739.54476,W,5,12,1.21,181.8,M,-33.8,M,9,0000*50,41.886742,-87.65907933333334,148.0
2024-07-29 15:14:57,$GNGGA,201457,4153.20454,N,8739.54387,W,5,12,0.87,181.7,M,-33.8,M,10,0000*64,41.88674233333333,-87.6590645,147.89999999999998
2024-07-29 15:14:58,$GNGGA,201458,4153.20456,N,8739.54299,W,5,12,0.87,181.7,M,-33.8,M,11,0000*66,41.88674266666666,-87.65904983333333,147.89999999999998
2024-07-29 15:14:59,$GNGGA,201459,4153.20464,N,8739.54212,W,5,12,0.92,181.6,M,-33.8,M,12,0000*63,41.886744,-87.65903533333334,147.8
2024-07-29 15:15:01,$GNGGA,201501,4153.20534,N,8739.54059,W,2,12,0.85,181.3,M,-33.8,M,14,0000*64,41.886755666666666,-87.65900983333333,147.5
2024-07-29 15:15:02,$GNGGA,201502,4153.20594,N,8739.54018,W,2,12,0.92,180.9,M,-33.8,M,15,0000*64,41.88676566666667,-87.659003,147.10000000000002
2024-07-29 15:15:03,$GNGGA,201503,4153.20642,N,8739.53994,W,2,12,0.82,181.2,M,-33.8,M,16,0000*6F,41.88677366666667,-87.658999,147.39999999999998
2024-07-29 15:15:04,$GNGGA,201504,4153.20676,N,8739.53978,W,5,12,0.85,181.4,M,-33.8,M,17,0000*6A,41.88677933333334,-87.65899633333333,147.60000000000002
2024-07-29 15:15:05,$GNGGA,201505,4153.20704,N,8739.53963,W,5,12,0.88,181.5,M,-33.8,M,18,0000*66,41.886784,-87.65899383333333,147.7
2024-07-29 15:15:06,$GNGGA,201506,4153.20741,N,8739.5395,W,5,12,0.95,181.7,M,-33.8,M,19,0000*6B,41.886790166666664,-87.65899166666667,147.89999999999998
2024-07-29 15:15:07,$GNGGA,201507,4153.20787,N,8739.53935,W,5,12,1.04,181.9,M,-33.8,M,20,0000*6E,41.88679783333333,-87.65898916666667,148.10000000000002
2024-07-29 15:15:08,$GNGGA,201508,4153.20835,N,8739.53925,W,2,12,1.17,182,M,-33.8,M,21,0000*68,41.886805833333334,-87.6589875,148.2
2024-07-29 15:15:09,$GNGGA,201509,4153.20885,N,8739.53921,W,5,12,1.17,182.2,M,-33.8,M,22,0000*60,41.88681416666667,-87.65898683333333,148.39999999999998
2024-07-29 15:15:11,$GNGGA,201511,4153.2097,N,8739.53903,W,5,12,1.04,182.6,M,-33.8,M,14,0000*61,41.886828333333334,-87.65898383333334,148.8
2024-07-29 15:15:13,$GNGGA,201513,4153.21057,N,8739.53899,W,5,12,1.23,183.1,M,-33.8,M,16,0000*6D,41.88684283333333,-87.65898316666667,149.3
2024-07-29 15:15:14,$GNGGA,201514,4153.21113,N,8739.53893,W,5,12,1.62,183.3,M,-33.8,M,17,0000*67,41.886852166666664,-87.65898216666666,149.5
2024-07-29 15:15:15,$GNGGA,201515,4153.21177,N,8739.53896,W,5,12,1.53,183.4,M,-33.8,M,18,0000*6B,41.88686283333333,-87.65898266666667,149.60000000000002
2024-07-29 15:15:17,$GNGGA,201517,4153.21316,N,8739.53928,W,5,12,1.65,183.2,M,-33.8,M,20,0000*60,41.886886,-87.658988,149.39999999999998
2024-07-29 15:15:18,$GNGGA,201518,4153.21379,N,8739.53939,W,5,12,1.53,183.2,M,-33.8,M,21,0000*62,41.8868965,-87.65898983333334,149.39999999999998
2024-07-29 15:15:19,$GNGGA,201519,4153.21443,N,8739.53949,W,2,12,1.6,183.2,M,-33.8,M,22,0000*6E,41.88690716666667,-87.6589915,149.39999999999998
2024-07-29 15:15:20,$GNGGA,201520,4153.2152,N,8739.53955,W,5,12,1.6,182.8,M,-33.8,M,13,0000*63,41.88692,-87.6589925,149.0
2024-07-29 15:15:21,$GNGGA,201521,4153.21591,N,8739.53969,W,5,12,1.6,182.9,M,-33.8,M,4,0000*50,41.886931833333335,-87.65899483333334,149.10000000000002
2024-07-29 15:15:22,$GNGGA,201522,4153.21649,N,8739.5402,W,5,12,1.6,182.9,M,-33.8,M,5,0000*57,41.8869415,-87.65900333333333,149.10000000000002
2024-07-29 15:15:23,$GNGGA,201523,4153.21691,N,8739.54103,W,5,12,1.85,183,M,-33.8,M,6,0000*53,41.8869485,-87.65901716666667,149.2
2024-07-29 15:15:24,$GNGGA,201524,4153.21719,N,8739.54181,W,2,12,1.85,183.3,M,-33.8,M,7,0000*5A,41.886953166666665,-87.65903016666667,149.5
2024-07-29 15:15:25,$GNGGA,201525,4153.21735,N,8739.54242,W,2,12,1.85,183.7,M,-33.8,M,8,0000*52,41.88695583333333,-87.65904033333334,149.89999999999998
2024-07-29 15:15:26,$GNGGA,201526,4153.21739,N,8739.5428,W,2,12,1.85,183.9,M,-33.8,M,9,0000*5C,41.8869565,-87.65904666666667,150.10000000000002
2024-07-29 15:15:27,$GNGGA,201527,4153.21737,N,8739.54312,W,2,12,1.85,184.1,M,-33.8,M,10,0000*6E,41.886956166666664,-87.659052,150.3
2024-07-29 15:15:28,$GNGGA,201528,4153.21765,N,8739.54354,W,2,12,3.55,184.5,M,-33.8,M,11,0000*6E,41.88696083333333,-87.659059,150.7
2024-07-29 15:15:29,$GNGGA,201529,4153.21774,N,8739.5439,W,2,12,3.64,184.6,M,-33.8,M,12,0000*65,41.88696233333334,-87.659065,150.8
2024-07-29 15:15:30,$GNGGA,201530,4153.21784,N,8739.54436,W,1,9,4.38,184.9,M,-33.8,M,,*7C,41.886964,-87.65907266666666,151.10000000000002
2024-07-29 15:15:31,$GNGGA,201531,4153.21795,N,8739.54474,W,1,5,11.8,185.1,M,-33.8,M,,*49,41.886965833333335,-87.659079,151.3
2024-07-29 15:16:10,$GNGGA,201610,4153.20665,N,8739.55071,W,1,9,1.26,191.1,M,-33.8,M,,*72,41.8867775,-87.6591785,157.3
2024-07-29 15:16:11,$GNGGA,201611,4153.20633,N,8739.55058,W,2,9,2.6,190.4,M,-33.8,M,29,0000*68,41.88677216666667,-87.65917633333333,156.60000000000002
2024-07-29 15:16:12,$GNGGA,201612,4153.20885,N,8739.54634,W,2,9,1.94,195.8,M,-33.8,M,30,0000*6C,41.88681416666667,-87.65910566666666,162.0
2024-07-29 15:16:14,$GNGGA,201614,4153.21122,N,8739.54521,W,2,5,4.85,199.1,M,-33.8,M,32,0000*66,41.88685366666667,-87.65908683333333,165.3
2024-07-29 15:16:15,$GNGGA,201615,4153.21262,N,8739.54512,W,1,6,3.69,199.2,M,-33.8,M,,*79,41.886877,-87.65908533333334,165.39999999999998
2024-07-29 15:16:16,$GNGGA,201616,4153.21414,N,8739.54503,W,2,12,2.02,199.2,M,-33.8,M,34,0000*6E,41.88690233333333,-87.65908383333333,165.39999999999998
2024-07-29 15:16:17,$GNGGA,201617,4153.21612,N,8739.54695,W,2,12,1.21,195.8,M,-33.8,M,35,0000*62,41.886935333333334,-87.65911583333333,162.0
2024-07-29 15:16:18,$GNGGA,201618,4153.21677,N,8739.54719,W,2,12,1.21,196.4,M,-33.8,M,36,0000*67,41.88694616666667,-87.65911983333334,162.60000000000002
2024-07-29 15:16:20,$GNGGA,201620,4153.2174,N,8739.54763,W,2,12,1.07,200.7,M,-33.8,M,38,0000*61,41.88695666666667,-87.65912716666666,166.89999999999998
2024-07-29 15:16:21,$GNGGA,201621,4153.21766,N,8739.54752,W,2,12,1.07,199.8,M,-33.8,M,14,0000*64,41.886961,-87.65912533333334,166.0
2024-07-29 15:16:22,$GNGGA,201622,4153.2179,N,8739.54671,W,2,12,1.07,198.2,M,-33.8,M,15,0000*64,41.886965000000004,-87.65911183333333,164.39999999999998
2024-07-29 15:16:23,$GNGGA,201623,4153.21791,N,8739.54638,W,2,12,1.3,199.7,M,-33.8,M,16,0000*6A,41.88696516666667,-87.65910633333333,165.89999999999998
2024-07-29 15:16:24,$GNGGA,201624,4153.21793,N,8739.54603,W,2,12,1.3,199.9,M,-33.8,M,17,0000*68,41.8869655,-87.6591005,166.10000000000002
2024-07-29 15:16:25,$GNGGA,201625,4153.21794,N,8739.54582,W,2,12,1.37,199.5,M,-33.8,M,18,0000*60,41.88696566666667,-87.659097,165.7
2024-07-29 15:16:26,$GNGGA,201626,4153.2182,N,8739.54593,W,2,12,1.37,199.7,M,-33.8,M,19,0000*60,41.88697,-87.65909883333333,165.89999999999998
2024-07-29 15:16:27,$GNGGA,201627,4153.21841,N,8739.54596,W,2,12,1.41,199.3,M,-33.8,M,20,0000*6C,41.8869735,-87.65909933333333,165.5
2024-07-29 15:16:29,$GNGGA,201629,4153.21947,N,8739.54457,W,2,12,1.02,189.5,M,-33.8,M,22,0000*6B,41.88699116666667,-87.65907616666667,155.7
2024-07-29 15:16:30,$GNGGA,201630,4153.22038,N,8739.54301,W,2,12,1.02,183.5,M,-33.8,M,23,0000*6E,41.88700633333333,-87.65905016666666,149.7
2024-07-29 15:16:31,$GNGGA,201631,4153.22062,N,8739.54248,W,2,12,1.02,182.7,M,-33.8,M,14,0000*6B,41.887010333333336,-87.65904133333333,148.89999999999998
2024-07-29 15:16:32,$GNGGA,201632,4153.22082,N,8739.5425,W,2,12,1.04,182.5,M,-33.8,M,15,0000*6A,41.88701366666667,-87.65904166666667,148.7
